Name,BoroCode,open_year_round,Latitude,Longitude,place_id
100% Playground,3,Yes,40.64659,-73.899055,ChIJNwvvtedcwokR-CqHxddTvE8
174th Street Playground,2,Yes,40.834343,-73.87774,ChIJ57ToBPL0wokRxzFXggPCB4s
Abe Lincoln,1,Yes,40.812313,-73.93727,ChIJ6-JT5nX2wokRusw1c8WFxug
Abigail Playground,2,No,40.81733,-73.90485,ChIJWSqXZbH1wokRaw3IAQd1Jj8
Agnes Haywood Playground,2,Yes,40.880398,-73.86157,ChIJpW5RhT7zwokR3An-ITLc6S4
Albemarle Park,3,Yes,40.646652,-73.96545400000002,ChIJxbshfDlbwokR22dAXr8_WnE
Albert J. Parham Playground,3,Yes,40.69023,-73.97106,ChIJs-2N3blbwokR3yds1DYFwiQ
Alexander Hamilton Playground,1,Yes,40.82303,-73.95132,ChIJKdd4W2T2wokRknKQeZy3ntk
Allerton Playground,2,Yes,40.865883,-73.85055,ChIJ2wWlS07zwokRdTu_0Sd5fTo
Alley Park (PS 213),4,Yes,40.76007,-73.770256,ChIJmzkJ0-BhwokRZqGFshqdkGU
Alley Pond Park,4,Yes,40.747314,-73.74296,ChIJzyx69P9hwokRMP73UTW2hTA
American Playground,3,Yes,40.72877,-73.95783,ChIJEZTfskFZwokRVRYWnMmva6s
Andrews Playground,4,No,40.74345,-73.95481,ChIJU0mtdiNZwokRYjOvi3aXWUE
Annandale Playground (PS 175),4,Yes,40.7311405,-73.85191800000003,ChIJt1ldh8RMtokREBjGDOcKq0A
Arcilla Playground,2,Yes,40.827145,-73.914215,ChIJnXHlozX0wokRcB-hofrRRZs
Arrochar Playground,5,Yes,40.597633,-74.07095,ChIJ6_gQYhtPwokRtKDQUJeoUcI
Asser Levy,1,Yes,40.735935,-73.97632,ChIJ3QWkiwxZwokRtSAA01kLa4s
Asser Levy Park,3,Yes,40.57506,-73.97162,ChIJJ6b4_0dEwokR3RI76Ea93dw
Astoria Heights Playground,4,Yes,40.76052,-73.91155,ChIJv4Qp7hVfwokRjWjp4AyKfdY
Astoria Park (Charybdis Playground),4,Yes,40.7792862,-73.9205912,ChIJi_uVCUR7k1QRv4obofFy3fc
Athens Sq (PS 17),4,Yes,40.7692191,-73.9229162,ChIJ8UNwBh-9oRQR3Y1mdkU1Nic
Aubondale Playground,4,Yes,40.765858,-73.794205,ChIJycPVL9VhwokRdaLkrH1hdtM
Augustus St. Gaudens,1,Yes,40.73563,-73.98236,ChIJ_W0brgpZwokR4EJOoF2h260
Bailey Playground,2,Yes,40.881912,-73.900154,ChIJDXXquaLzwokRlaXt6kPefeo
Baisley Pond Park,4,Yes,40.675583,-73.78529,ChIJrQgf9NpmwokRPcrLDI42IHQ
Baisley Pond Park,4,Yes,40.675583,-73.78529,ChIJrQgf9NpmwokRPcrLDI42IHQ
Bartlett Playground,3,Yes,40.700893,-73.94608000000002,ChIJZVCvmfpbwokRjTZHGtAQnq8
Battery Park (Battery Gardens),1,Yes,40.70683,-74.01758000000002,ChIJ1cyukBFawokRyQ1BU3s-Z18
Bay Terrace Playground (PS 169),4,Yes,40.774334,-73.75071,EioxLTY5IFBhcmsgTGFuZSwgTGl0dGxlIE5lY2ssIE5ZIDExMzYzLCBVU0E
Bayside Fields,4,Yes,40.771008,-73.784966,ChIJa7eVMHqKwokRHo_RdIM-NN4
Bayside Playground (JHS 180),4,No,40.758556,-73.765434,ChIJvffyJeJhwokRnqmHtHkM_X4
Bayview Playground,3,Yes,40.63477,-73.88721,ChIJhQPCpiddwokRmBD51_EOUTk
Bedford Playground,3,Yes,40.70831,-73.964,ChIJzzZ1ot5bwokRJVqbnLf7f8s
Behagen Playground,2,Yes,40.82537,-73.90126,ChIJ73HKhE30wokRGjKFOTmG1B8
Bellaire Playground,4,Yes,40.72152,-73.7579,ChIJwV0SQHhhwokRzEFbhbM7FLw
Belmont Playground,2,Yes,40.85024600000001,-73.887665,ChIJvzbi4If0wokR0U_Jy88iXJs
Bendheim Playground,1,,40.790466,-73.95444499999998,ChIJvXbPp6BYwokR4qLYE8FWVbM
Bennett Park,1,Yes,40.852806,-73.938,ChIJTbE1MKf2wokRmmwnWT7_t4c
Benson Playground,3,Yes,40.602383,-74.00220999999998,ChIJ67VgtgtFwokRKPuk7AC_rRQ
Bensonhurst Park,3,Yes,40.59632,-74.00134,ChIJw8mHO6FFwokRcM0WpmQcNHQ
Big Bush Park,4,Yes,40.739506,-73.90273,ChIJv1jibuNewokRK0FqKaXtxAs
Bildersee Playground,3,Yes,40.63567000000001,-73.91167,ChIJQ254D8hcwokRQ6tw5TO4h74
Bleecker Playground,1,Yes,40.73622,-74.00559,ChIJUdQnJJVZwokRkAVt9JscnGg
Bloomingdale Park,5,,40.5334,-74.210594,ChIJnV9kHslKwokRPKUuDwlpPGA
Bloomingdale Playground,1,Yes,40.78851,-73.96643,ChIJifkMFpxYwokRXYDkgiFNh1E
Bowne Park,4,Yes,40.7705,-73.80771999999997,ChIJH9ghRp2KwokRUtHSD91Dbbg
Bowne Playground,4,Yes,40.757988,-73.824814,ChIJU-fJSBFgwokRaT0G-ov0_rw
Breininger Park,4,Yes,40.725845,-73.72903000000002,ChIJe2Ki3jZiwokRR9E0iBkH_lQ
Breukelen Playground,3,Yes,40.6514248,-73.89170390000002,ChIJt5thZINxxkcRA8KNLed51cg
Brevoort Playground,3,Yes,40.68046,-73.92263,ChIJFYXER25cwokRbInmyNLU2to
Bridge Park 2,3,Yes,40.696175,-73.9803,EiYyIFBhcmsgQXZlbnVlLCBCcm9va2x5biwgTlkgMTEyMDUsIFVTQQ
Broadway Malls,1,Yes,40.77235,-73.97159,ChIJx3g2ovJYwokRtkUlbWC4nE8
Bronx Park (Ben Abrams Playground),2,Yes,40.83705,-73.86543,ChIJBUEf6ovgwokRwlazSIxIpsk
Bronx Park (Brady Playground),2,Yes,40.83705,-73.86543,ChIJBUEf6ovgwokRwlazSIxIpsk
Bronx Park (French Charley's Playground),2,Yes,40.83705,-73.86543,ChIJBUEf6ovgwokRwlazSIxIpsk
Bronx Park (Olinville Playground),2,Yes,40.86049000000001,-73.87425,ChIJdYs5dWjzwokRagNsXYTMbog
Bronx Park (Ranaqua),2,Yes,40.806713,-73.92229499999998,ChIJuXPDksL1wokRy0go-NDPFxY
Bronx Park (River Park Playground),2,Yes,40.83705,-73.86543,ChIJBUEf6ovgwokRwlazSIxIpsk
Bronx Park (Rosewood Playground),2,Yes,40.83705,-73.86543,ChIJBUEf6ovgwokRwlazSIxIpsk
Bronx Park (Waring Playground),2,Yes,40.83705,-73.86543,ChIJBUEf6ovgwokRwlazSIxIpsk
Bronx River Parkway (Parque de los Ninos),2,Yes,40.94776,-73.83453,ChIJwxrhruqSwokRNr3sIuhgXu4
Brookville Park,4,Yes,40.65998,-73.74558,ChIJo9myzZxmwokRf8tp9AYNJFE
Brower Park,3,Yes,40.673588,-73.943146,ChIJW_THx4NbwokRNBtZNhJp9Js
Brownsville Playground,3,Yes,40.66725,-73.9072,ChIJE92ULl9cwokR7fXB3KDZ_Ko
Bushwick Playground & Pool,3,Yes,40.70181,-73.939476,ChIJ-3QCqflbwokRRB2-39l2v_c
Cadman Plaza & Brooklyn War Memorial,3,Yes,40.698277,-73.99149,ChIJF0uTxzdawokRY90anIEMYX4
Cadman Plaza & Brooklyn War Memorial,3,Yes,40.698277,-73.99149,ChIJF0uTxzdawokRY90anIEMYX4
Campiz Playground,3,Yes,40.713783,-73.95416999999998,ChIJFalKLl9ZwokRBbgRfV9luQg
Canarsie Park,3,Yes,40.630363,-73.892624,ChIJe6Gxc9RcwokR3nmTlX2LMIk
Capt. Rivera Playground,2,Yes,40.817833,-73.90677,ChIJPd5xrLb1wokR_ya1YK8BEnM
Capt. Tilly Park,4,Yes,40.71244,-73.7989,ChIJqdLwGeFgwokRl4dj3o97C9c
Carl Schurz Park,1,Yes,40.77513,-73.94369499999998,ChIJ42dOPLFYwokRR31RRn7rDDM
Carmansville Playground,1,Yes,40.82934,-73.94425,ChIJVfOYcIf2wokRZOHnnfezEQs
Carroll Park,3,Yes,40.68105,-73.995674,ChIJG95a21lawokRea-RZUlsxhQ
Carver Playground,3,No,40.680298,-73.92056,ChIJkaXX8W5cwokRbWw8ilCwTaU
Caserta Playground,2,Yes,40.837395,-73.85385,ChIJccnaKLj0wokREdCUKTE79qk
Castle Hill Playground,2,Yes,40.823414,-73.850914,ChIJhaLRT9D0wokR2LUzeXAWSuk
Castlewood Playground (PS 186),4,Yes,40.74966,-73.721434,ChIJ4a5wGymEbIcRiFRZzyA4X5k
Cedar Playground,2,Yes,40.85511,-73.91743000000002,ChIJs-rr7g30wokRZzdJaQdg4Og
Central Park (Ancient Playground),1,Yes,40.78087,-73.96119,ChIJa3Sxk5dYwokR-r1HwXcGrH8
Central Park (Arsenal),1,Yes,40.76744,-73.971436,ChIJ49l0jdD1wokRolt34tBgxoI
Central Park (Bethesda Terrace),1,,40.77384,-73.97086,ChIJEYYWppJYwokRUTul6ztwlJ0
Central Park (Conservatory Garden),1,Yes,40.79357,-73.95186600000002,ChIJi2bDZxz2wokRYtrmk91wrQk
Central Park (Dana Discovery Center),1,Yes,40.79706,-73.95142,ChIJqTjOsRv2wokRpTQaxNBKALY
Central Park (Heckscher Playground),1,Yes,40.768486,-73.9772,ChIJyVaLsvZYwokRIDVJ-GYzaCg
Central Park (Kerbs Boathouse),1,Yes,40.782864,-73.965355,ChIJ4zGFAZpYwokRGUGph3Mf37k
Central Park (Lasker),1,Yes,40.782864,-73.965355,ChIJ4zGFAZpYwokRGUGph3Mf37k
Central Park (Loeb Boathouse),1,Yes,40.782864,-73.965355,ChIJ4zGFAZpYwokRGUGph3Mf37k
Central Park (North Meadow Recreation Center),1,Yes,40.791134,-73.95968,ChIJhSkZ_J9YwokRuPP6zzavTbk
Central Park (Ramble),1,,40.776154,-73.96906,ChIJ_1f3U5JYwokRH1_PRd1eIrI
"Central Park (Sheep Meadow, Mineral Springs)",1,No,40.782864,-73.965355,ChIJ4zGFAZpYwokRGUGph3Mf37k
Central Park (Tavern on The Green),1,,40.77221,-73.977786,ChIJR85N-75ZwokRgaTKj1AmgvA
Central Park (Tennis Courts),1,Yes,40.789562,-73.96191,ChIJm17AB5pYwokRvAT6yLn623E
Central Park (The Great Hill),1,No,40.796894,-73.95895,ChIJUQj7pBj2wokRkE42LsmsmIM
Central Park (The Metropolitan Museum of Art),1,Yes,40.779438,-73.96324,ChIJb8Jg9pZYwokR-qHGtvSkLzs
Central Park (West 61st),1,No,40.771324,-73.985886,ChIJgZA2J19YwokRlM8A5UGOzDI
Central Park (Wollman Rink),1,Yes,40.782864,-73.965355,ChIJ4zGFAZpYwokRGUGph3Mf37k
Central Park Delacorte Comfort Station,1,Yes,40.782864,-73.965355,ChIJ4zGFAZpYwokRGUGph3Mf37k
Century Playground,3,Yes,40.576775,-73.970055,ChIJU6ONxkdEwokRgKaa5iCoQnM
Chelsea Park,1,Yes,40.75011,-74.00118,ChIJQ1pGK7dZwokRfVM1hZ1QmU4
Chelsea Recreation Center,1,Yes,40.748302,-74.002045,ChIJk_1kXbdZwokRTCNXO2NxYt8
Chester Playground,3,Yes,40.66866,-73.91190999999998,ChIJ78NzLl5cwokRaExoOtaDaLo
Claremont Park,2,Yes,40.840504,-73.90748,ChIJZbqMb0H0wokRKJ3PIMd-kD0
Claremont Park Playground,2,Yes,40.840502,-73.907481,ChIJX_ane5Q6w4ARTTe8KondetU
Clement Clark Moore Park,4,Yes,40.742176,-73.88252,ChIJM67XlqxfwokRyybUBAj-iak
Clintonville Playground (JHS 194),4,Yes,40.78315900000001,-73.807,ChIJn3LhCWiMOIgR3Rx6W6VV1PA
Col. Charles Young Playground,1,Yes,40.81959000000001,-73.93619,ChIJw3VA2df1wokRqNXEaFTut7Q
Coleman Square Playground,1,Yes,40.711205,-73.99365,ChIJr5WyOC9awokRXnoOef0xDrU
Colucci Playground,2,Yes,40.852837,-73.83474,ChIJe82E56mMwokR1P82IGVW-yQ
Coney Island,3,,40.574924,-73.98594,ChIJxYx4g8pFwokRxOWbtEQbr3o
Coney Island Beach,3,Yes,40.57213,-73.97933,ChIJRWwYoTREwokRtbWBEodfuS0
Conference House Park,5,,40.499416,-74.25168000000002,ChIJqVNqlb3Kw4kRhpOMG6975Mg
Cooper Park,3,Yes,40.71601500000001,-73.93727,ChIJU0PwIlNZwokRzqwxSCnttrg
Corona Golf Playground,4,Yes,40.747494,-73.85495999999998,ChIJd_8qRMVfwokRKJHst3GbH9Y
Corporal John A. Seravalli Playground,1,Yes,40.739086,-74.00492,ChIJdY3Rwr9ZwokR-69tc5yUGlA
Corporal Thompson Park,5,No,40.637917,-74.11849000000002,ChIJa65UdgtOwokRnPEzggw-TAs
Crotona Park (Martin Van Buren Playground),2,Yes,40.83531,-73.89584,ChIJGUCh6Vv0wokRluEWqvt9RXQ
Crotona Park (Playground of the Stars),2,Yes,40.83567100000001,-73.900639,ChIJb380HitoQBMRsIPgTq6VCwM
Crotona Park (Pool House),2,Yes,40.83994179999999,-73.8980562,ChIJb380HitoQBMRsIPgTq6VCwM
Crowley Playground,4,Yes,40.729458,-73.879944,ChIJpxe1J1pewokRLi8m5fdNSoE
Cunningham Park,4,Yes,40.736763,-73.76838000000002,ChIJs40Y2ZlhwokRKkRKsOXfG8E
Cypress Hills Park,3,Yes,40.68994,-73.87255,ChIJT1_NtMRdwokRmI0vB9PWJp4
Daniel M. O'Connell Playground,4,Yes,40.69996,-73.75825999999998,ChIJWxJ0wlxhwokRE0L9pzLyZ6w
De Witt Clinton Park,1,Yes,40.794968,-73.94585,ChIJ_XIefgP2wokRs_Y_gC2x-9o
Dematti Playground,5,Yes,40.61451,-74.07426,ChIJqT3Rf6tPwokRqP8Lf2kall0
Detective Keith L. Williams Park,4,Yes,40.702297,-73.78419,ChIJ44D9QSNhwokRQYyg3wCbb68
Devoe Park,2,Yes,40.86309,-73.9064,ChIJo8QZ9onzwokR1MbApd6Kjvg
Dimattina Playground,3,Yes,40.680313,-74.00220999999998,ChIJT491bV9awokRcqlUjY8WmEU
Ditmars Park Playground,4,Yes,40.772743,-73.89761999999997,ChIJA85TfnpfwokRu5MfdPTw_fA
Dr. Charles R. Drew Memorial Park,4,Yes,40.68095,-73.80331,ChIJD1VPcC9nwokR-1WsiYxEK2A
Drew Playground,2,Yes,40.83315,-73.90337,ChIJm8H1eUX0wokR9ntsxEgefNg
Dyckman House Museum,1,Yes,40.8674,-73.922844,ChIJW5tkmffzwokR9kQiFoAOU0A
Dyker Beach Park,3,Yes,40.61208,-74.01403,ChIJp3bA9W9FwokR8hUQH1e9snE
East Elmhurst Playground (PS 127),4,Yes,40.69869600000001,-73.84754000000002,EjExMjcgUGFyayBMYW5lIFNvdXRoLCBSaWNobW9uZCBIaWxsLCBOWSAxMTQxOCwgVVNB
East River Park (Tennis Courts),1,Yes,40.72681400000001,-74.01142,ChIJD5tjzPNZwokR4mjbLtJHERI
East River Playground,1,Yes,40.789284,-73.938,ChIJlznYOQD2wokRdN_UHLiSqVk
East Springfield Playground,4,Yes,40.698505,-73.74016,ChIJFW2SG-djwokRf1yeJHz4hew
Eastchester Playground,2,Yes,40.869896,-73.85275,ChIJ6ejvtUjzwokRcjV8q-7Pxxc
Edenwald Playground,2,Yes,40.884186,-73.84503000000002,ChIJkYXNnS3zwokR4N-2qSCviIc
Edmonds Playground,3,Yes,40.689354,-73.971436,ChIJiWq3VLdbwokRTLxLAuEvuVU
Electric Playground,4,Yes,40.736057,-73.80533,ChIJ5bIGv1BgwokRSXXfHppTXZM
Equity Park,4,Yes,40.691387,-73.85348499999998,ChIJrYYgTPtdwokRDeTzgBCS020
Ethan Allen Playground,3,Yes,40.655704,-73.88695,ChIJo2NORAJdwokRMIZiLkAzIPg
Fermi Playground,3,Yes,40.70056500000001,-73.92837,ChIJlR9-zAVcwokRkD7u_kXAuro
Flushing Fields (Leonardo Ingravallo Playground),4,Yes,40.767498,-73.83308000000002,ChIJP2PATQVgwokRHih0tNEk7Po
Flushing Meadows Corona Park (Albert H. Mauro Playground),4,Yes,40.767498,-73.83308000000002,ChIJP2PATQVgwokRHih0tNEk7Po
Flushing Meadows Corona Park (Lawrence Playground),4,Yes,40.767498,-73.83308000000002,ChIJP2PATQVgwokRHih0tNEk7Po
Flushing Meadows Corona Park (Meadow Lake North),4,Yes,40.736,-73.84044,ChIJmX4_LH5gwokRkSCWiIR_AU0
Flushing Meadows Corona Park (Passerelle),4,Yes,40.767498,-73.83308000000002,ChIJP2PATQVgwokRHih0tNEk7Po
Flushing Meadows Corona Park (Playground for All Children),4,Yes,40.74083,-73.84994499999998,ChIJKww2zM5fwokRT9vNWrDaVno
Flushing Meadows Corona Park (Worlds Fair Playground),4,Yes,40.737534,-73.845764,ChIJSXcb8tRfwokRdD-yeM2_EZM
"Flushing Meadows Corona Park (Zoo, Ballfields)",4,Yes,40.767498,-73.83308000000002,ChIJP2PATQVgwokRHih0tNEk7Po
Flynn Playground,2,Yes,40.821033,-73.91192,ChIJsZBThLX1wokR4XHDk77cYfY
Forest Park (Jackson Pond Playground),4,Yes,40.70078,-73.84297,ChIJC2OzHgJewokRMuk7-lOiOfo
Forest Park (The Overlook),4,Yes,40.71077,-73.83554000000002,ChIJEZVI3KNgwokRfwy2aACXCnE
Forest Park (Victory Field),4,Yes,40.701714,-73.8533,ChIJ03eDBAZewokRVlxzTwVHPSw
Fort Greene Park,3,Yes,40.69034600000001,-73.97383,ChIJvf6v7bZbwokRUO0-u24i73g
Fort Greene Playground,3,Yes,40.69041,-73.97058,ChIJ7Ro_3blbwokRX6lB9YrtwKA
Fort Independence Playground,2,Yes,40.881645,-73.89612,ChIJ0--wkqHzwokRpvNm0ZDJrI8
Fort Tryon Park (Café),1,No,40.863796,-73.932556,ChIJuQtEAgH0wokR6ntLHv4BwVk
Fort Washington Park (Lily Brown Playground),1,Yes,40.8494774,-73.9466407,ChIJMcSS1-W6xokR5gfc6tz5inA
Fox Playground,3,Yes,40.632523,-73.92404,ChIJmeYZBrJcwokRp9nJZ6JxLeQ
Francis Lewis Playground,4,Yes,40.76051,-73.78437,ChIJj24kutBhwokRkN_djZdiUD4
Frank D. O'Connor Playground,4,Yes,40.744297,-73.88656,ChIJcZj1UKpfwokRRXXX63ylrws
Frank Golden Park,4,Yes,40.784786,-73.83419,ChIJgUiRsbGKwokRhZYvvc48pHI
Franz Sigel Park,2,Yes,40.8231,-73.92533,ChIJt1jVX9L1wokRX_MwJv8axtU
Frederick Douglass Playground,1,Yes,40.796913,-73.96776,ChIJP5P_hSb2wokRwE_TDZpJyFg
Frederick E. Samuel Playground,1,Yes,40.817204,-73.9391,ChIJgUbtdnf2wokRjxV-HD_9Cc4
Frederick Johnson Park,1,Yes,40.82481,-73.93557,ChIJgcLNl3_2wokRcfBDVyXc0Dc
Fresh Meadows Playground (PS 173),4,Yes,40.72667,-73.79644,ChIJz0BP51RgwokR1APTL0u4dpw
Friends Field,3,Yes,40.61861,-73.97308000000002,ChIJD7b46txEwokRBgohTVUOboA
Fulton Park,3,Yes,40.6798,-73.93249499999997,ChIJWwO2dXdcwokR48fntL7vPaI
Galapo Playground,3,Yes,40.59792,-73.94673,ChIJzX2uk4VEwokR7BQEd8k3y6g
Glenwood Playground,3,Yes,40.636845,-73.91963,ChIJeUnzorBcwokR5Sz-RXk2dk4
Gorman Playground,4,Yes,40.7625,-73.88435,ChIJaa0WPJ9fwokRngqjbs88b7c
Gouverneur Playground,2,Yes,40.835617,-73.90337,ChIJZ0PE-UT0wokRhP7gJFxf6bU
Gowanus Playground,3,Yes,40.680206,-73.98539,ChIJbxjFjVRawokRomfivipNUes
Grove Hill Playground,2,Yes,40.82,-73.90897,ChIJPTNzSLT1wokRrVhaZC3VD74
Gun Hill Playground,2,Yes,40.874817,-73.865616,ChIJ_y5tnWrzwokRl6UMMSelm-Y
Haffen Park,2,No,40.87367,-73.83933,ChIJK5HUi8qMwokR2NBJez2_i6I
Hallets Cove Playground,4,Yes,40.77179,-73.934326,ChIJaXQybktfwokRlm0TIT_t1bM
Hamilton-Metz Field,3,Yes,40.662453,-73.94094,ChIJqzk3iHxbwokRWghMeDKhBr4
Hansborough Recreation Center,1,Yes,40.812805,-73.939224,ChIJfStcKXT2wokRh9-lesopliM
Harris Park,2,Yes,40.876213,-73.891525,ChIJA3rjYZ7zwokRpkXZlNA5mi8
Hart Playground,4,Yes,40.748905,-73.89721999999998,ChIJrc6_ZgRfwokR09_KMeIqiDI
Harvey Park,4,Yes,40.784554,-73.82343,ChIJY1qUZLyKwokRxYZa4HRQo6c
Hattie Carthan Playground,3,Yes,40.685444,-73.94608000000002,ChIJ0RqI341bwokR30woo5CHACc
Havemeyer Playground,2,No,40.829838,-73.84788,ChIJmdbfVcn0wokR5tQSzXTHYpc
Heckscher Playground,3,Yes,40.695065,-73.91816,ChIJy_AHNRdcwokRgKzo0bzB-c4
Henry Hudson Park,2,Yes,40.88092,-73.92018,ChIJM6mCDOnzwokRdA3Jq-C9HOE
Herbert Von King Park,3,Yes,40.689613,-73.94673,ChIJgypUQY1bwokRQ2r4QJ0d1so
Herman Dolgon Playground,3,Yes,40.59826,-73.93984,ChIJm_VUp4NEwokRTRrTLuTIro8
Hermon MacNeil Park,4,Yes,40.79283,-73.85186,ChIJP5W2-Ej1wokR3QpPBK__PRs
High Rock Park,5,Yes,40.58254,-74.12326,ChIJ64AwUh1MwokRiTY282qWRDA
Highland Park,4,Yes,40.68837,-73.88748000000002,ChIJF1inp8xdwokRIG9nBQYpooQ
Hoffman Park,4,Yes,40.732677,-73.87223,ChIJn8nHyE5ewokRQl0AboAImmc
Holcombe Rucker,1,Yes,40.828884,-73.935615,ChIJi7evxHBcq1IRgyAeL53_xOo
Horseshoe Playground,2,Yes,40.824013,-73.897675,ChIJf1AYAlP0wokRoYMJmELhykY
Hunts Point Playground,2,Yes,40.814228,-73.885826,ChIJh2OF3wb1wokRlK6_7_a7YpE
Inwood Hill Park (Nature Center),1,Yes,40.867714,-73.9212,ChIJd6eiHvfzwokRHALd9SLBP0c
Inwood Hill Park (Payson Playground),1,Yes,40.867714,-73.9212,ChIJd6eiHvfzwokRHALd9SLBP0c
Inwood Hill Park (Tennis Courts),1,Yes,40.867714,-73.9212,ChIJd6eiHvfzwokRHALd9SLBP0c
J. Hood Wright Park,1,Yes,40.846367,-73.94149,ChIJW8Q_N5_2wokREfZXoLWHIEA
Jackie Robinson Park,3,Yes,40.680355,-73.92772,ChIJqR2g_HBcwokRyNmxhVvr6XE
Jackie Robinson Park,1,Yes,40.82429000000001,-73.94216999999998,ChIJgzplcn72wokRpwVCAYr77ls
Jackie Robinson Playground,3,Yes,40.66584,-73.95921,ChIJwcx0MnNbwokRsAaRzCD7IVI
Jesse Owens Playground,3,Yes,40.691235,-73.93249499999997,ChIJ_-XirgtcwokRcn75EiyhOlg
John Golden Park,4,No,40.7743,-73.76765,ChIJcZJPfBKKwokRgRj3L03dXgE
John J. Carty Park,3,Yes,40.613262,-74.03009,ChIJWXrh_odPwokRmhFHGTyQvxE
John Jay Park & Pool,1,Yes,40.769306,-73.949394,ChIJEQ6kk8dYwokRVW7W8Xj-lqw
John Paul Jones Park,3,Yes,40.611153,-74.03405,ChIJNeN18YZPwokREIx2z6hFJuM
Joseph Austin Playground,4,Yes,40.715847,-73.8011,ChIJEW3DieNgwokRy4_Fb_KsIaM
Joseph F. Mafera Park,4,Yes,40.707176,-73.891525,ChIJcVQZ0IBewokRz7YTIHpEJns
Juniper Valley Park,4,Yes,40.721127,-73.8846,ChIJwaaRmmdewokRTRadCEvkHnA
Kaiser Park,3,Yes,40.579586,-73.99696,ChIJbwdQG7hFwokRA-1gKnCmC3E
Kennedy King Playground,3,Yes,40.65861500000001,-73.92205,ChIJo-7mx49cwokRIQd6l9bLO0o
Kissena Park,4,Yes,40.746174,-73.80809,ChIJz0JyaUZgwokRaa65eFs4xX0
Lawerence Virgilio Playground,4,Yes,40.747448,-73.91081,ChIJq5MydB9fwokR7UA__nypHS0
Leif Ericson Park & Square,3,Yes,40.6395739,-74.0141676,ChIJJ5otRLZ38ocRrYN14zm9Ke0
Levy Playground,5,Yes,40.633904,-74.12904,ChIJaWCTkN5NwokRtLC663gfgSw
Lincoln Terrace Park,3,Yes,40.667343,-73.92643000000002,ChIJE9J4o4dcwokRHBEGAPmS6jw
Linden Park,3,Yes,40.658955,-73.88711500000002,ChIJzZBlvAFdwokRTXrC3I_f9ds
Linden Park,4,Yes,40.67347,-73.84479,ChIJ1TChq4tdwokRUn3Sih6oXnQ
Lindower Park,3,Yes,40.61231,-73.91136,ChIJy_FkuzhDwokRsB5JkGlLn0w
Little Flower Playground,1,No,40.712395,-73.98841999999998,ChIJzSG25itawokRo4CWpVi_CbE
London Planetree Playground,4,Yes,40.686084,-73.853117,ChIJdd4hrwug2EcRmSrV3Vo6llI
Lost Battalion Hall,4,Yes,40.73185,-73.86533,ChIJ00BqHzZewokRJzV4xkzXHxI
Lozada Playground,2,Yes,40.80787700000001,-73.92505,ChIJgbaoOt31wokRNjCQaJIiiwI
Lyons Pool,5,No,40.637283,-74.07444,ChIJyUNPAM1PwokRXVq-XUSZmFs
Macombs Dam Park,2,Yes,40.827545,-73.92976999999998,ChIJscfYjyz0wokRzjhFjVCOmGk
Magenta Playground,2,Yes,40.873684,-73.86791,ChIJXS8UTmrzwokRqbVxAmixmFA
Mahoney Playground,5,Yes,40.643402,-74.08600600000003,ChIJOcDAVC5OwokRoqPzL_162BA
Maple Playground,4,No,40.755924,-73.82601,ChIJrxvFvhNgwokR5XpjrtTEp8o
Marble Hill Playground,2,No,40.87752,-73.90824,ChIJISzAipPzwokRwO5kqaUgxg0
Marconi Park,4,Yes,40.692673,-73.794876,ChIJ98nw9dVgwokRaWNY00zt5vc
Marc's & Jason's Playground,3,Yes,40.6635039,-73.949556,ChIJMfr4JdC_UIgR5XXDKcDZMrY
Maria Hernandez Park,3,Yes,40.70316,-73.9239,ChIJY1MdtBxcwokRB2pYGRyDdWs
Marine Park,3,Yes,40.61199000000001,-73.933044,ChIJQ4aauqBEwokRUUjtEmjfFg0
Marine Park Nature Center,3,,40.603966,-73.93056999999997,ChIJoRNC_GNDwokRWOPeZcK6c-g
Martinez Playground,3,Yes,40.708977,-73.94425,ChIJw5Y_mf1bwokRbKDtoe42DhY
Mathew Muliner Playground,2,Yes,40.846886,-73.86148,ChIJIQeRMKP0wokRGXP_Wj5cjps
McCaffrey Playground,1,Yes,40.75895,-73.991325,ChIJ978QqVNYwokRJAZNUDHfxBY
McDonald Playground,3,Yes,40.600685,-73.97216999999998,ChIJv-USG_pEwokRXoFXqO8V2uE
Mellett Playground,3,Yes,40.59696,-73.95738,ChIJ3WEZbYtEwokR9Pn427UsDs4
Morningside Park,1,Yes,40.80509,-73.95913,ChIJZ9134BX2wokRt92hotTSVe0
Morningside Park,1,Yes,40.80509,-73.95913,ChIJZ9134BX2wokRt92hotTSVe0
Morningside Playground,1,Yes,40.78406500000001,-73.92546999999998,ChIJlfpGnldfwokR6IvDn8ea1ms
Mott Playground,2,Yes,40.83132,-73.914856,ChIJ1x9KUDb0wokRCaD4kNu2dr4
Mt. Prospect Park,3,Yes,40.672714,-73.96725500000002,ChIJd7iXmQlbwokR8dF5ivoy3_Y
Murray Playground,4,No,40.747284,-73.948654,ChIJ3SO2MCZZwokR2jBo9akeoXA
Nelson Playground,2,Yes,40.8349,-73.92698,ChIJoxkxny_0wokRbftzdtljYPQ
Newport Playground,3,Yes,40.700706,-73.99499499999997,ChIJBTi92TlawokRh6j-HQvZTRg
Noble Playground,2,No,40.837254,-73.87223,ChIJlYZwuuz0wokRQTsIoURAxsE
Noonan Playground,4,Yes,40.7411,-73.92257,ChIJn7huI9pewokR2ocRiZBwz3I
Ocean Hill Playground,3,Yes,40.674416,-73.91219,ChIJ1y0nYV1cwokRw7RKVHndcho
Old Town Playground,5,Yes,40.595417,-74.0816,ChIJ6SOGXeFOwokRbXhOdYmwOaM
Oracle Playground,3,Yes,40.693928,-73.97153,ChIJI7jB_rdbwokR3kqQ-U1p14A
Wright Brothers Playground,1,Yes,40.831688,-73.94176800000002,ChIJzYYnew9l3UcRkN1jgT7xCgQ
Owen Dolen Recreation Center,2,Yes,40.840706,-73.84252,ChIJEzpEZrP0wokRFlUTHwKUrV8
P.O. Serrano Playground,2,Yes,40.823414,-73.850914,ChIJhaLRT9D0wokR2LUzeXAWSuk
Paerdegat Park,3,Yes,40.63822,-73.938,ChIJ1VynuldbwokRlvbBjS2wM7Q
Park Slope Playground,3,Yes,40.69041,-73.97058,ChIJ7Ro_3blbwokRX6lB9YrtwKA
Parkside Playground,2,Yes,40.88834,-73.84083000000003,ChIJHSOvpNSMwokR2FVMqiuYHlQ
Pelham Bay Park (Bruckner Boulevard and Wilkinson Avenue),2,Yes,40.84967,-73.833084,ChIJneRyRVaLwokRet03ScFfGyg
Pelham Bay Park (Bruckner CS),2,Yes,40.84967,-73.833084,ChIJneRyRVaLwokRet03ScFfGyg
Pelham Bay Park (Hunter Island Picnic Area),2,Yes,40.84967,-73.833084,ChIJneRyRVaLwokRet03ScFfGyg
Pelham Bay Park (Playground for All Children),2,Yes,40.84967,-73.833084,ChIJneRyRVaLwokRet03ScFfGyg
Playground 70,1,Yes,40.768486,-73.9772,ChIJyVaLsvZYwokRIDVJ-GYzaCg
Poor Richard's Playground,1,Yes,40.79268,-73.94287,ChIJyRyD6QP2wokR-i-lN9sczfA
Potomac Playground,3,Yes,40.68209,-73.94425,ChIJK0__Do9bwokRGr9FCPECNJI
Prescott Playground,5,Yes,40.5227,-74.186195,ChIJ17cftpNKwokRK-9UhgFp63c
Prospect Park (East Parade Grounds),3,Yes,40.650845,-73.96861,ChIJy7rj9TxbwokRMXUF-M8IKm8
Prospect Park (Litchfield Villa),3,Yes,40.666973,-73.97378,ChIJ7WeoBgVbwokRz3H_YxwUsgw
Prospect Park (West Parade Grounds),3,Yes,40.650845,-73.96861,ChIJy7rj9TxbwokRMXUF-M8IKm8
Prospect Park (Willink Hill),3,Yes,40.661667,-73.96389,ChIJofiGRxJbwokRKBnXiDcuBiU
Prospect Park (Willink Hill),3,No,40.661667,-73.96389,ChIJofiGRxJbwokRKBnXiDcuBiU
Quarry Ballfields,2,No,40.851025,-73.89097,ChIJ3ShDMX30wokR92v0ag6TVq0
Queens Farm Museum,4,Yes,40.747917,-73.72282,ChIJ97dFr3JiwokRbeAyMsBwcnA
Queensbridge Park,4,Yes,40.756725,-73.94884,ChIJOzs_bdpYwokRptRUx_jDQMs
Rainey Park,2,No,40.81912,-73.8974,ChIJ73A_U6z1wokRm2a7OPx29mk
Rainey Park,4,Yes,40.76607,-73.94076,ChIJLSDuystYwokRJXBFXaPXZkc
Randall Playground,2,No,40.819286,-73.84953,ChIJnZhwxtb0wokRXm-DzI4eD4Q
Red Hook Park,3,No,40.672276,-74.00402,ChIJlWggH_NawokRkXIEHLE0Jyo
Red Hook Park,3,Yes,40.672276,-74.00402,ChIJlWggH_NawokRkXIEHLE0Jyo
Red Hook Park (Coffey Park Playground),3,Yes,40.67728,-74.009445,ChIJv4cTh4tawokRQFmjdeb5YyI
Red Hook Park (Recreation Center),3,Yes,40.672276,-74.00402,ChIJlWggH_NawokRkXIEHLE0Jyo
Reiff Playground,4,Yes,40.71866,-73.90163000000003,ChIJOTmx9pFewokRx8Pn2d3TiZ4
Rev. Polite Playground,2,Yes,40.82721,-73.89685,ChIJWYenZFH0wokRJk4bl4znFl4
Rienzi Playground,2,Yes,40.887676,-73.85863,ChIJeZ8RiSTzwokRxcMg921M-VQ
Riverbend Playground,2,Yes,40.871883,-73.90594499999997,ChIJHaU2A47zwokRxDg1NdIX_bQ
Riverside Park (Boat Basin),1,No,40.7857406,-73.9844978,ChIJu330f9-m3IAR6ApeEwXXofc
Riverside Park (Café),1,No,40.801947,-73.97304399999999,ChIJu330f9-m3IAR6ApeEwXXofc
Riverside Park (Classic Playground),1,Yes,40.784042,-73.98598,ChIJu330f9-m3IAR6ApeEwXXofc
Riverside Park (Dinosaur Playground),1,Yes,40.797175,-73.975091,ChIJu330f9-m3IAR6ApeEwXXofc
Riverside Park (Hippo Playground),1,Yes,40.793441,-73.978858,ChIJu330f9-m3IAR6ApeEwXXofc
Riverside Park (Neufeld Playground),1,Yes,40.783955,-73.986104,ChIJu330f9-m3IAR6ApeEwXXofc
Riverside Park (River Run Playground),1,Yes,40.787103,-73.98218299999998,ChIJu330f9-m3IAR6ApeEwXXofc
Riverside Park (Riverbank Playground),1,Yes,40.8241473,-73.95267120000003,ChIJu330f9-m3IAR6ApeEwXXofc
Riverside Park (Tennis Courts),1,Yes,40.81206,-73.96528,ChIJk-gMVD_2wokRyzf3J8AjnYU
Robert Moses Playground,1,Yes,40.748047,-73.96923000000002,ChIJObfdnxxZwokRExJ3Sgs2B0g
Rockaway Beach,4,No,40.586723,-73.8115,ChIJoxE3NnZowokRlTnWRcMzxOU
Rockaway Beach,4,No,40.586723,-73.8115,ChIJoxE3NnZowokRlTnWRcMzxOU
Rockaway Beach 106 Comfort Station,4,,40.586723,-73.8115,ChIJoxE3NnZowokRlTnWRcMzxOU
Rockaway Beach 86 Comfort Station,4,,40.586723,-73.8115,ChIJoxE3NnZowokRlTnWRcMzxOU
Rockaway Beach 97 Comfort Station,4,,40.586723,-73.8115,ChIJoxE3NnZowokRlTnWRcMzxOU
Rodney Playground South,3,Yes,40.709785,-73.95591,ChIJ-VCfr-FbwokRSuWf5yA6fGg
Roy Wilkins Recreation Center,4,Yes,40.688076,-73.77017,ChIJCUlB4EphwokRSmxfemFzqmg
Rufus King Park,4,Yes,40.703915,-73.80404,ChIJ0WeVdNtgwokR37KJk1s7Szw
Seth Low Playground,3,Yes,40.60811,-73.986305,ChIJpylQ5xxFwokRvefLlEI0444
Seton Park,2,Yes,40.88594000000001,-73.91651,ChIJ5zUuqcHzwokRF5DJbc4ourU
Shore Road Park,3,Yes,40.628002,-74.03997,ChIJ-co5iPRPwokR38_7atc6LmU
Shore Road Park,3,Yes,40.628002,-74.03997,ChIJ-co5iPRPwokR38_7atc6LmU
Shore Road Park,3,Yes,40.628002,-74.03997,ChIJ-co5iPRPwokR38_7atc6LmU
Shore Road Park,3,No,40.628002,-74.03997,ChIJ-co5iPRPwokR38_7atc6LmU
Silver Lake Park,5,Yes,40.627666,-74.093254,ChIJKxhR-EJOwokR2BG8WGpYJZE
Slattery Playground,2,Yes,40.857315,-73.89832,ChIJhzGamnn0wokRwvO307JC8k8
Slope Park,3,Yes,40.664764,-73.982185,ChIJiyYWQh1bwokR0UAUI-D9hQY
Sol Bloom Playground,1,Yes,40.789574,-73.96876999999998,ChIJE7dN-pxYwokRlMjrqn1gsA4
Sol Lain Playground,1,No,40.7142,-73.98389399999998,ChIJH61mxipawokRP0XLHwtDZGo
Soundview Park Playground,2,No,40.82221,-73.85973,ChIJTbgkCdz0wokRke1wGEDo6_U
South Beach,5,Yes,40.5829,-74.07386,ChIJSVX5zthOwokRYYERkRLbDr8
South Beach Wetlands,5,Yes,40.58692,-74.072975,ChIJDS-XCSFPwokRSWNMtP98rMo
Space Time Playground,2,No,40.82221,-73.85973,ChIJTbgkCdz0wokRke1wGEDo6_U
Sperandeo Brothers Playground,3,Yes,40.677143,-73.88436,ChIJSSmjDLRdwokRPchh8CoFdyc
Springfield Park,4,Yes,40.66107,-73.76176,ChIJzW9kppdmwokRF46wqamCPKw
St Nicholas Park South,1,Yes,40.817917,-73.94954,ChIJ0zHAy2_2wokROHSUG_3UnEw
St. Albans Park (174 Street Playground),4,Yes,40.692911,-73.779042,ChIJCcmT56A4dkgRWUCmRoCE7HE
St. Andrew's Playground,3,Yes,40.67856,-73.94223000000002,ChIJV5Qp3IVbwokR6rMX0ta2m_s
St. Catherine's Park,1,Yes,40.765057,-73.95857,ChIJbQ05bcJYwokRd3y182keOmk
St. Mary's Park West,2,Yes,40.81099,-73.911736,ChIJ2WRPfsf1wokRIMcB__ZIV1A
St. Nicholas Park,1,Yes,40.817917,-73.94954,ChIJ0zHAy2_2wokROHSUG_3UnEw
St. Nicholas Park,1,Yes,40.817917,-73.94954,ChIJ0zHAy2_2wokROHSUG_3UnEw
St. Vartan Park,1,Yes,40.74497,-73.97363,ChIJ61QpcwVZwokRKRSfanl07Ro
Stanley Isaacs,1,Yes,40.781387,-73.945,ChIJvzdZrK9YwokRmb50mxB1xtU
Stars & Stripes Playground,2,Yes,40.885244,-73.839517,ChIJjUU5_NDGlzMRbf6wdCtl6To
Sternberg Park,3,Yes,40.706486,-73.94736999999998,ChIJG3vIsfxbwokRo3p8VMxvdyY
Stockton Playground,3,Yes,40.697243,-73.948654,ChIJHzryPO5bwokRKe0DigCMbn0
Stroud Playground,3,Yes,40.674812,-73.96191999999998,ChIJ5SJZUKBbwokR4n40uLZYgew
Sunset Park,3,Yes,40.64553,-74.01238000000002,ChIJfWVm5LNawokRMvYNqC6zPgg
Sunset Park (Recreation Center),3,Yes,40.64665,-74.00229,ChIJZ_TgIMlawokReqA6Y5yTda4
Taylor Playground,2,Yes,40.83913,-73.86598000000002,ChIJezW6epX0wokRNSLCSBCDGkU
Tecumseh Playground,1,Yes,40.781727,-73.97868000000003,ChIJq9Bh4IhYwokRSUs2Oq1vU_Y
Terrace Playground,5,Yes,40.613586,-74.09849,ChIJj1jOj19OwokRXVpW02Ba9IM
The Pearly Gates,2,Yes,40.83874,-73.84549,ChIJ0xMJerT0wokR7oAeKNhix3I
Thomas Jefferson Park,1,Yes,40.793365,-73.93525,ChIJMwj--v31wokR1R54vRBAyNs
Tiffany Playground,2,Yes,40.82477,-73.89437,ChIJybxjcVT0wokR184gVd3hmC8
Tiger Playground,3,Yes,40.688217,-73.91103000000003,ChIJg4GPNT5cwokRYypKonHZ1Ek
Todt Hill Playground,5,Yes,40.601433,-74.10344,ChIJN7S95ZdOwokRaVpMnuYk9xE
Tompkins Square Park,1,Yes,40.726376,-73.98177,ChIJDY-I6ndZwokRTyVjfDd4GXA
Tremont Park Playground,2,Yes,40.84281,-73.89171,ChIJa8gw_2D0wokRiw47NWNqELs
Underhill Playground,3,Yes,40.676716,-73.96576999999998,ChIJwfAMzqZbwokRj7xQGEaMA8A
Underwood Park,3,Yes,40.688625,-73.96629,ChIJuYa4WLlbwokRuvf6ohlrlPg
Union Square Park,1,Yes,40.73594,-73.99039499999998,ChIJuwazLZ9ZwokRoDhp6p5_XCo
Van Cortlandt Park (Indian Field),2,Yes,40.896496,-73.87829599999998,ChIJwfwrwQLzwokRViHMlXDBjcY
Vesuvio Playground,1,Yes,40.725254,-74.00265999999998,ChIJy4wBT4xZwokRlPlUcvHPRBE
Vidalia Park,2,No,40.844227,-73.88117,ChIJ-V7II4z0wokROHkh2ylfg6U
Virginia Playground,2,No,40.8342,-73.86221,ChIJ_fcpAMH0wokRl84qBCXrplY
Vleigh Place Playground,4,Yes,40.718155,-73.82040400000002,ChIJUZejcpNgwokRbdZHtWirGYA
Wakefield Playground,2,Yes,40.90181,-73.854675,ChIJgfCXY9rywokRQkKv-8EZO1k
Washington Hall Playground,3,Yes,40.695476,-73.966657,ChIJW-T2Wt7Gt4kRKl2I1CJFUsI
Washington Square Park,1,Yes,40.7312823,-73.997949,ChIJW-T2Wt7Gt4kRKl2I1CJFUsI
Watson Gleason Playground,2,Yes,40.828457,-73.86891999999997,ChIJhamvj-j0wokRfUVaT_4mkNU
Webster Playground,2,,40.859543,-73.8929,ChIJhw3ObH_0wokR6OaLR0qsneE
Gertrude Ederle Recreation Center & Pool,1,Yes,40.7711104,-73.988662,ChIJwehykPGUtocRMZyyQ-1g2yI
West 8nd Street CS,3,,40.576805,-73.97641999999998,ChIJKcyK7UlEwokRhO_wirCD14o
Whitestone Playground (PS 193),4,Yes,40.792046,-73.809555,ChIJPyY-ve2KwokRJBcRvkPYaro
William Sheridan Playground,3,Yes,40.715195,-73.96409,ChIJF2xbnmFZwokRaTdxnUu1lIw
Williamsbridge Oval,2,Yes,40.87791,-73.87755600000001,ChIJe5iiqHLzwokRW5FP5WoZjEE
Willis Playground,2,Yes,40.810955,-73.922844,ChIJJRufocT1wokRw7bHF2mftYI
Willowbrook Park,5,Yes,40.600563,-74.15811,ChIJjd5CmEJMwokR3q_qsj1h3Dk
Wingate Park,3,Yes,40.658596,-73.94425,ChIJ8RsP-2RbwokRJHjpdE5xO-w
Zimmerman Playground,2,No,40.866177,-73.86874,ChIJCXtWMWbzwokRM8yJf_yNzbU
