FountainType,the_geom,Location,Place,BoroCode,Availability,Latitude,Longitude
F High Low,POINT (-73.98659181365889 40.60753207315604),Out in Open,Seth Low Playground/ Bealin Square,3,Active,40.607532073156,-73.98659181
C,POINT (-73.96862765692859 40.7480871896291),In Playground,Robert Moses Playground,1,Active,40.74808719,-73.96862766
D,POINT (-74.0003631604654 40.750036026114756),"Under Tree, Near Ballfield, Just Outside Playground",Chelsea Park,1,Active,40.75003603,-74.00036316
D,POINT (-73.97290101781864 40.72386196549101),"Just Outside Playground, Near Ballfield",John V. Lindsay East River Park,1,Active,40.72386197,-73.97290102
C,POINT (-73.94639259466328 40.69933443616386),"In Shade, In Playground",Charlie's Place,3,Active,40.69933444,-73.94639259
E Wheelchair,POINT (-73.92412001948213 40.703148631662614),Out in Open,Maria Hernandez Park,3,Active,40.70314863,-73.92412002
CS Concrete,POINT (-73.83541216458211 40.70989104598132),Just Outside Playground,Forest Park,4,Active,40.70989105,-73.83541216
C,POINT (-73.82189029787115 40.749009160447415),Out in Open,Kissena Corridor Park,4,Active,40.74900916,-73.82189029999998
A,POINT (-73.85043591195084 40.74628271582561),Under Tree,Flushing Meadows Corona Park,4,Active,40.74628272,-73.85043591
D,POINT (-73.75035291482422 40.594116304422464),Out in Open,Beach 17 Playground,4,Active,40.594116304422,-73.75035291
C,POINT (-74.19801006044196 40.5320604857313),Just Outside Playground,Richmond Parkway,5,Active,40.53206049,-74.19801006
C,POINT (-74.01152114448477 40.630582530228764),In Playground,Leif Ericson Park,3,Active,40.63058253,-74.01152114
A,POINT (-73.92149830053333 40.87145657354482),Near Ballfield,Inwood Hill Park,1,Active,40.87145657,-73.9214983
C,POINT (-73.97478960620937 40.7174350715035),"Under Tree, Near Ballfield",John V. Lindsay East River Park,1,Active,40.71743507,-73.97478961
C,POINT (-73.98647089425904 40.660201255822955),In Shade,Butterfly Gardens,3,Active,40.66020126,-73.98647089
C,POINT (-73.89967168190799 40.66257799498549),In Playground,Lion's Pride Playground,3,Active,40.66257799,-73.89967168
A,POINT (-73.95910814569388 40.73561179541555),"In Playground, Under Tree",Greenpoint Playground,3,Active,40.7356118,-73.95910815
A,POINT (-73.97152639520957 40.6660594118767),Out in Open,Prospect Park,3,Active,40.66605941,-73.9715264
A,POINT (-73.7941909938004 40.8624767457428),Out in Open,Pelham Bay Park,2,Active,40.86247675,-73.79419099
D,POINT (-73.95984131674064 40.710527932663624),"In Playground, Under Tree",La Guardia Playground,3,Active,40.71052793,-73.95984132
E,POINT (-73.95895649291961 40.57526977895059),Out in Open,Coney Island Beach & Boardwalk,3,Active,40.57526978,-73.95895649
C,POINT (-73.9803807041983 40.711203244737106),"Under Tree, Near Ballfield, Just Outside Playground",Corlears Hook Park,1,Active,40.71120324,-73.9803807
D,POINT (-73.76275009986881 40.59254717374473),In Shade,Beach 30th Street Playground,4,Active,40.59254717,-73.76275009999998
A,POINT (-73.87824711127223 40.89593290170336),Near Ballfield,Van Cortlandt Park,2,Active,40.8959329,-73.87824711
A,POINT (-73.91959306528246 40.780270317271665),"Out in Open, Under Tree, In Shade",Astoria Park,4,Active,40.78027032,-73.91959307
D,POINT (-74.06301212593604 40.59243802980647),Just Outside Playground,Franklin D. Roosevelt Boardwalk and Beach,5,Active,40.59243803,-74.06301213
A,POINT (-74.01715711986482 40.62755186432433),Out in Open,McKinley Park,3,Active,40.62755186,-74.01715712
D,POINT (-73.8237465260574 40.78279288380388),In Playground,Harvey Park,4,Active,40.78279288,-73.82374653
C,POINT (-73.86301305962124 40.6756201057255),In Playground,Belmont Playground,3,Active,40.67562011,-73.86301306
C,POINT (-73.8875575916527 40.67064430231672),"Out in Open, Near Ballfield",Sutter Ballfields,3,Active,40.6706443,-73.88755759
B,POINT (-73.97533594931137 40.69064605174565),Out in Open,Fort Greene Park,3,Active,40.69064605,-73.97533595
C,POINT (-73.92349973602167 40.833089271617006),Near Ballfield,Mullaly Park,2,Active,40.83308927,-73.92349974
D,POINT (-73.92548853149675 40.666721231198075),Under Tree,Lincoln Terrace / Arthur S. Somers Park,3,Active,40.66672123,-73.92548853
A,POINT (-74.00463996804507 40.65596669099067),In Playground,D'Emic Playground,3,Active,40.65596669,-74.00463997
A,POINT (-73.84708768493677 40.74762631636178),Under Tree,Flushing Meadows Corona Park,4,Active,40.74762632,-73.84708768
C,POINT (-73.78251681225879 40.67789881975598),"Out in Open, Under Tree",Baisley Pond Park,4,Active,40.67789882,-73.78251681
A,POINT (-73.78533068480898 40.70388754443373),Out in Open,Detective Keith L Williams Park,4,Active,40.70388754,-73.78533068
A,POINT (-74.09837441506136 40.57485204625707),In Playground,Midland Playground,5,Active,40.57485205,-74.09837442
A,POINT (-74.0309828990796 40.63981947775261),Just Outside Playground,Owl's Head Park,3,Active,40.63981948,-74.0309829
Other,POINT (-74.00193075025685 40.75215623616355),Out in Open,The High Line,1,Active,40.75215624,-74.00193075
E Wheelchair,POINT (-73.91747550497843 40.640750612406656),"Under Tree, In Shade, In Playground",Curtis Playground,3,Active,40.64075061,-73.9174755
C,POINT (-73.85288308299175 40.83895912327039),"In Playground, In Shade, Under Tree",Castle Hill Playground,2,Active,40.83895912,-73.85288308
C,POINT (-74.16265120163189 40.53706901327814),In Playground,Lieutenant John H. Martinson Playground,5,Active,40.53706901,-74.1626512
A,POINT (-73.93161769542503 40.87045180652843),Near Ballfield,Inwood Hill Park,1,Active,40.87045181,-73.9316177
E Wheelchair,POINT (-73.77154862306001 40.77098172368239),In Playground,Crocheron Park,4,Active,40.77098172,-73.77154862
A,POINT (-73.90406782602015 40.90283441615568),,Vinmont Veteran Park,2,Active,40.90283442,-73.90406783
A,POINT (-73.77180194148158 40.73529572895759),"Near Ballfield, Out in Open",Cunningham Park,4,Active,40.73529573,-73.77180194
A,POINT (-73.95497355338944 40.72177137196247),Near Ballfield,McCarren Park,3,Active,40.72177137,-73.95497355
A,POINT (-73.93599229195567 40.82899114017403),"Near Ballfield, Just Outside Playground",Holcombe Rucker Park,1,Active,40.82899114,-73.93599229
C,POINT (-73.93803593999998 40.63781760809363),"Out in Open, Near Ballfield",Paerdegat Park,3,Active,40.63781761,-73.93803594
Other,POINT (-74.11070229141347 40.56168689770271),Near Ballfield,Dugan Playground,5,Active,40.5616869,-74.11070229
E Wheelchair,POINT (-73.94567451098447 40.59200095278448),Near Ballfield,Bill Brown Playground,3,Active,40.59200095,-73.94567451
D,POINT (-73.94180667072594 40.821451442992434),"In Shade, In Playground",Renaissance Playground,1,Active,40.82145144,-73.94180667
A,POINT (-73.7839064048872 40.76053889250834),In Playground,Francis Lewis Playground,4,Active,40.76053889,-73.7839064
A,POINT (-73.93899043242507 40.81370224138313),"In Playground, Near Ballfield, Under Tree",Howard Bennett Playground,1,Active,40.81370224,-73.93899043
CS Concrete,POINT (-73.89261259883682 40.9009251540253),In Shade,Van Cortlandt Park,2,Active,40.90092515,-73.89261259999998
E Wheelchair Dog,POINT (-74.03496512264346 40.64019994141609),Out in Open,Owl's Head Park,3,Active,40.64019994,-74.03496512
Trough High Low,POINT (-73.87217561885215 40.817607924568215),Near Ballfield,Soundview Park,2,Active,40.81760792,-73.87217562
D,POINT (-73.95864159324488 40.7594905662151),Out in Open,Twenty-Four Sycamores Park,1,Active,40.75949057,-73.95864159
A,POINT (-73.77493947577639 40.67444019411596),Near Ballfield,Rochdale Park,4,Active,40.67444019,-73.77493948
E Wheelchair,POINT (-73.94294054576132 40.576762350719676),Out in Open,Manhattan Beach Park,3,Active,40.57676235,-73.94294055
E Wheelchair,POINT (-73.95740049230612 40.79302091624471),"Near Ballfield, Out in Open",Central Park,1,Active,40.79302092,-73.95740049
A,POINT (-73.81699036586781 40.775223389180425),"Out in Open, Near Ballfield",Flushing Fields,4,Active,40.77522339,-73.81699037
D,POINT (-73.75588163676494 40.686115194728565),Under Tree,Locust Manor Playground,4,Active,40.68611519,-73.75588164
A,POINT (-73.87347356972406 40.71018877411146),In Playground,Middle Village Playground,4,Active,40.71018877,-73.87347357
C,POINT (-73.85495079349782 40.756466869675336),Near Ballfield,Hinton Park,4,Active,40.75646687,-73.85495079
C,POINT (-73.85541472484225 40.74364991549613),Out in Open,William F Moore Park,4,Active,40.74364992,-73.85541472
A,POINT (-73.8539163386334 40.90227219157187),Out in Open,Wakefield Playground,2,Active,40.90227219,-73.85391634
D,POINT (-73.96342908242245 40.660662698291695),In Playground,Prospect Park,3,Active,40.6606627,-73.96342908
A,POINT (-73.79034284743894 40.86971121697975),Under Tree,Pelham Bay Park,2,Active,40.86971122,-73.79034285
D,POINT (-73.88123879630922 40.89001422371831),"Out in Open, Under Tree",Van Cortlandt Park,2,Active,40.89001422,-73.88123879999998
A,POINT (-73.9577008144543 40.597019272962356),Out in Open,Mellett Playground,3,Active,40.59701927,-73.95770081
C,POINT (-73.95592224556765 40.81533402236661),In Playground,Sheltering Arms Playground,1,Active,40.81533402,-73.95592225
C,POINT (-73.89471522834255 40.8443337338669),"In Playground, Under Tree",Tremont Park,2,Active,40.84433373,-73.89471523
E Wheelchair,POINT (-73.88287559764319 40.719661321328715),Near Ballfield,Juniper Valley Park,4,Active,40.71966132,-73.88287559999998
A,POINT (-73.74202930676597 40.66279275709811),Out in Open,Brookville Park,4,Active,40.66279276,-73.74202931
A,POINT (-73.99409378515034 40.711273537084736),Near Ballfield,Coleman Playground,1,Active,40.71127354,-73.99409379
A,POINT (-73.99492272431905 40.680954367256135),In Playground,Carroll Park,3,Active,40.68095437,-73.99492272
A,POINT (-73.81339927669553 40.82337666521684),"Near Ballfield, Out in Open",Bicentennial Veterans Memorial Park,2,Active,40.82337667,-73.81339928
C,POINT (-73.98134396621283 40.68686719475676),"In Playground, Out in Open",Sixteen Sycamores Playground,3,Active,40.68686719,-73.98134397
C,POINT (-73.90755652017631 40.83190697157351),"In Shade, Under Tree",Morgan Playground,2,Active,40.83190697,-73.90755652
Other,POINT (-74.09293105052043 40.6258156869087),Under Tree,Silver Lake Park,5,Active,40.62581569,-74.09293105
D,POINT (-73.88656429166319 40.6557552253083),Under Tree,Ethan Allen Playground,3,Active,40.65575523,-73.88656429
E Wheelchair,POINT (-73.96541673845005 40.65159403294468),"In Playground, Out in Open",Parade Ground,3,Active,40.65159403,-73.96541674
A,POINT (-73.96642667225402 40.65189496271986),"Out in Open, Near Ballfield",Parade Ground,3,Active,40.65189496,-73.96642667
D,POINT (-74.08417350961426 40.574144166349086),In Playground,Franklin D. Roosevelt Boardwalk and Beach,5,Active,40.57414417,-74.08417351
D,POINT (-73.88164445481642 40.84377971338112),Out in Open,Vidalia Park,2,Active,40.84377971,-73.88164445
A,POINT (-74.03082385409537 40.63938498874216),In Playground,Owl's Head Park,3,Active,40.63938499,-74.03082385
A,POINT (-73.8621255159567 40.834144704171955),,Virginia Playground,2,Active,40.8341447,-73.86212552
A,POINT (-73.91030994309541 40.810344772950664),"Out in Open, In Playground",St. Mary's Park,2,Active,40.81034477,-73.91030994
D,POINT (-73.83875370361937 40.744821073391776),Out in Open,Flushing Meadows Corona Park,4,Active,40.74482107,-73.8387537
E Wheelchair,POINT (-73.99004689480086 40.694145048005225),Out in Open,Korean War Veterans Plaza,3,Active,40.69414505,-73.99004689
Bottle Filler High Low,POINT (-73.93755297157146 40.60686686955961),Near Ballfield,Marine Park,3,Active,40.60686687,-73.93755297
F,POINT (-73.92176540804532 40.74726043475831),"Under Tree, Just Outside Playground",Torsney Playground,4,Active,40.74726043,-73.92176541
E Wheelchair,POINT (-73.99765615667471 40.73031601946951),Under Tree,Washington Square Park,1,Active,40.73031602,-73.99765616
E Wheelchair,POINT (-73.97548830367985 40.77616189874956),"Under Tree, Out in Open, In Shade",Central Park,1,Active,40.7761619,-73.9754883
Pedestal,POINT (-73.91592932001524 40.792732583740595),"Out in Open, Near Ballfield",Randall's Island Park,1,Active,40.79273258,-73.91592932
Bottle Filler,POINT (-73.94160240562599 40.79701195383356),"Near Ballfield, Just Outside Playground",James Weldon Johnson Playground,1,Active,40.79701195,-73.94160241
C,POINT (-73.85509169909254 40.760257849947095),Under tree,Grand Central Parkway Extension,4,Active,40.76025785,-73.8550917
A,POINT (-74.08219502316028 40.574736377490574),Near Ballfield,Franklin D. Roosevelt Boardwalk and Beach,5,Active,40.57473638,-74.08219502
E Wheelchair,POINT (-73.97944009542248 40.791563817459426),"Out in Open, Under Tree",Riverside Park,1,Active,40.79156382,-73.97944009999998
A,POINT (-74.0171161758236 40.60619700135132),Near Ballfield,Dyker Beach Park,3,Active,40.606197,-74.01711618
D,POINT (-73.99327813311575 40.768385164897815),Near Ballfield,De Witt Clinton Park,1,Active,40.76838516,-73.99327813
Bottle Filler Fountain,POINT (-73.976948164817 40.66139182547216),"Out in Open, Near Ballfield",Prospect Park,3,Active,40.66139183,-73.97694816
A,POINT (-73.89458858001399 40.837264037108845),Out in Open,Crotona Park,2,Active,40.83726404,-73.89458858
A,POINT (-73.74720960593241 40.74187866097597),Out in Open,Alley Pond Park,4,Active,40.74187866,-73.74720961
Other,POINT (-73.97379949860614 40.76911733151658),"Under Tree, In Shade, Out in Open",Central Park,1,Active,40.76911733,-73.9737995
A,POINT (-73.90618328412984 40.655666353387566),"Under Tree, Near Ballfield, In Shade",Osborn Playground,3,Active,40.65566635,-73.90618328
C,POINT (-73.85610200061454 40.70165017959882),Just Outside Playground,Forest Park,4,Active,40.70165018,-73.856102
F High Low Dog,POINT (-73.87364841752691 40.8270554067748),"In Playground, Near Ballfield",Bronx River Parkway,2,Active,40.82705541,-73.87364842
A,POINT (-73.82139912223231 40.71216436215226),In Playground,Hoover - Manton Playgrounds,4,Active,40.71216436,-73.82139912
C,POINT (-73.91204602972445 40.710535295152155),Near Ballfield,Grover Cleveland Playground,4,Active,40.7105353,-73.91204603
C,POINT (-73.77116817986219 40.75706196853995),In Playground,Marie Curie Park,4,Active,40.75706197,-73.77116818
C,POINT (-73.99604941360941 40.571620731387625),"Under Tree, In Shade, In Playground",Nautilus Playground,3,Active,40.57162073,-73.99604941
C,POINT (-73.79396963623299 40.76585116609915),"Under Tree, In Playground",Auburndale Playground,4,Active,40.76585117,-73.79396964
A,POINT (-73.8215463787203 40.7463531106793),"Under Tree, In Shade, In Playground",Kissena Corridor Park,4,Active,40.74635311,-73.82154638
Trough,POINT (-73.99084611065203 40.728739273506626),Out in Open,Cooper Triangle,1,Active,40.72873927,-73.99084611
D,POINT (-73.94917457108089 40.70243757356385),"Out in Open, In Playground",De Hostos Playground,3,Active,40.70243757,-73.94917457
D,POINT (-73.81730890854168 40.77427514457948),Near Ballfield,Flushing Fields,4,Active,40.77427514,-73.81730891
D,POINT (-73.92522846327041 40.77695798776511),"Near Ballfield, Under Tree, Out in Open",Astoria Park,4,Active,40.77695799,-73.92522846
C,POINT (-73.7781429804323 40.693089869594765),Out in Open,St. Albans Park,4,Active,40.69308987,-73.77814298
Other,POINT (-73.99152089046329 40.70972577727045),"In Shade, Near Ballfield",East River Waterfront Esplanade,1,Active,40.70972578,-73.99152089
A,POINT (-73.94004501307276 40.82756364710671),"Near Ballfield, In Playground",Jackie Robinson Park,1,Active,40.82756365,-73.94004501
D,POINT (-74.03741659351324 40.62608702961401),Near Ballfield,Fort Hamilton Athletic Field,3,Active,40.62608703,-74.03741659
C,POINT (-73.9461571402069 40.685746313775304),"Near Ballfield, In Playground",Hattie Carthan Playground,3,Active,40.68574631,-73.94615714
Bottle Filler,POINT (-73.92807860273928 40.77060731341977),In Playground,Van Alst Playground,4,Active,40.77060731,-73.92807859999998
A,POINT (-73.80879008824664 40.79218815839475),"Under Tree, In Shade, Near Ballfield",Whitestone Playground,4,Active,40.79218816,-73.80879009
CS Concrete,POINT (-73.93140483920845 40.64793480360242),"Out in Open, In Playground",Tilden Playground,3,Active,40.6479348,-73.93140484
C,POINT (-73.84241709478401 40.75103432046998),Out in Open,Flushing Meadows Corona Park,4,Active,40.75103432,-73.84241709
Trough,POINT (-73.8983006952694 40.886777526462254),"Under Tree, In Playground",Van Cortlandt Park,2,Active,40.88677753,-73.8983007
Trough,POINT (-73.81318972976997 40.58381271347718),Out in Open,Rockaway Beach Boardwalk,4,Active,40.58381271,-73.81318973
D,POINT (-73.90552996600913 40.887815343228084),Under Tree,MacLaughlin Playground,2,Active,40.88781534,-73.90552997
A,POINT (-73.76960614625064 40.68602838592829),In Playground,Roy Wilkins Recreation Center,4,Active,40.68602839,-73.76960615
D,POINT (-73.84247056811886 40.700906947047535),In Playground,Forest Park,4,Active,40.70090695,-73.84247057
A,POINT (-73.90241776582482 40.77782906036353),Near Ballfield,Woodtree Playground,4,Active,40.77782906,-73.90241777
D,POINT (-73.87755766652322 40.72095767645868),Out in Open,Juniper Valley Park,4,Active,40.72095768,-73.87755767
A,POINT (-73.85978446921648 40.720436561615145),"Under Tree, In Playground",The Painter's Playground,4,Active,40.72043656,-73.85978447
E Wheelchair,POINT (-73.97790068391477 40.710892417190195),"Under Tree, Near Ballfield",John V. Lindsay East River Park,1,Active,40.71089242,-73.97790068
E Wheelchair,POINT (-73.88460072079081 40.69062036783966),Out in Open,Highland Park,4,Active,40.69062037,-73.88460072
D,POINT (-73.9053338343462 40.81352720103616),"Under Tree, In Playground",Fountain Of Youth Playground,2,Active,40.8135272,-73.90533383
A,POINT (-73.86095259541281 40.73342825209711),Near Ballfield,Horace Harding Playground,4,Active,40.73342825,-73.86095259999998
A,POINT (-73.92571624708499 40.82308733727061),Out in Open,Franz Sigel Park,2,Active,40.82308734,-73.92571625
E Wheelchair Child,POINT (-73.96397169908562 40.777631842432946),In Playground,Central Park,1,Active,40.77763184,-73.9639717
E Wheelchair Child,POINT (-73.97619653840809 40.736109272277226),"Just Outside Playground, Near Ballfield",Asser Levy Playground,1,Active,40.73610927,-73.97619654
D,POINT (-73.95824577649833 40.692062017232324),Near Ballfield,Star Spangled Playground,3,Active,40.69206202,-73.95824578
A,POINT (-73.85881293857953 40.88776934391895),"Under Tree, In Shade, In Playground",Rienzi Playground,2,Active,40.88776934,-73.85881294
A,POINT (-73.93463272246585 40.77182740833203),In Playground,Hallets Cove Playground,4,Active,40.77182741,-73.93463272
F High Low,POINT (-73.91943426036589 40.63689409146381),"Out in Open, Just Outside Playground",Glenwood Playground,3,Active,40.63689409,-73.91943426
A,POINT (-73.76732679022858 40.59906642128006),Out in Open,Bayswater Park,4,Active,40.59906642,-73.76732679
F High Low,POINT (-73.86585178844273 40.843566312973856),Under Tree,Van Nest Park,2,Active,40.84356631,-73.86585179
A,POINT (-74.08983708200229 40.58289470214008),In Playground,Dongan Playground,5,Active,40.5828947,-74.08983708
A,POINT (-73.98635207379607 40.78382800859193),"Just Outside Playground, Near Ballfield, Out in Open",Riverside Park,1,Active,40.78382801,-73.98635207
E Wheelchair Child,POINT (-73.883781648395 40.677725458537644),"Under Tree, In Playground",Sperandeo Brothers Playground,3,Active,40.67772546,-73.88378165
C,POINT (-73.93995607212061 40.6746789689748),"In Playground, Out in Open",St. Mark's Playground,3,Active,40.67467897,-73.93995607
C,POINT (-73.92727302900934 40.665898097448),Under Tree,Lincoln Terrace / Arthur S. Somers Park,3,Active,40.6658981,-73.92727303
C,POINT (-73.78231990042197 40.67728075189273),In Playground,Baisley Pond Park,4,Active,40.67728075,-73.7823199
D,POINT (-73.74608302326126 40.59513869376141),Just Outside Playground,Beach 9 Playground,4,Active,40.59513869,-73.74608302
A,POINT (-73.71511304706546 40.7497143537693),Near Ballfield,Glen Oaks Oval,4,Active,40.74971435,-73.71511305
E Wheelchair,POINT (-73.96500135061895 40.78043708895184),"Under Tree, In Shade",Central Park,1,Active,40.78043709,-73.96500135
A,POINT (-74.11054252145131 40.617712353874644),Out in Open,Clove Lakes Park,5,Active,40.61771235,-74.11054252
CS Metal,POINT (-74.01839056613562 40.70506569322364),In Shade,Battery Park City,1,Active,40.70506569,-74.01839057
E Wheelchair,POINT (-73.96180450138817 40.78875922730629),"Under Tree, Out in Open",Central Park,1,Active,40.78875923,-73.9618045
C,POINT (-73.82570717189672 40.84712420206664),Near Ballfield,Pelham Bay Park,2,Active,40.8471242,-73.82570717
C,POINT (-73.86201958063027 40.748605370294314),Near Ballfield,Park Of The Americas,4,Active,40.74860537,-73.86201958
E Wheelchair,POINT (-73.9714781133276 40.574001248842855),Out in Open,Coney Island Beach & Boardwalk,3,Active,40.57400125,-73.97147811
D,POINT (-73.85330490359611 40.68580648020978),In Playground,London Planetree Playground,4,Active,40.68580648,-73.85330490000003
C,POINT (-73.97449563283378 40.71897745246964),Near Ballfield,John V. Lindsay East River Park,1,Active,40.71897745,-73.97449563
B,POINT (-73.93566494864172 40.792466939279294),"Near Ballfield, Under Tree",Thomas Jefferson Park,1,Active,40.79246694,-73.93566495
Pedestal,POINT (-73.91484509600676 40.794847254317666),"Out in Open, Near Ballfield",Randall's Island Park,1,Active,40.79484725,-73.9148451
C,POINT (-73.82445540922943 40.846618680174934),Near Ballfield,Pelham Bay Park,2,Active,40.84661868,-73.82445541
D,POINT (-73.95750980216903 40.60380865286166),In Playground,Kelly Park,3,Active,40.60380865,-73.9575098
E Wheelchair,POINT (-73.96242699019052 40.75499171211726),Under Tree,Sutton Parks,1,Active,40.75499171,-73.96242699
A,POINT (-73.81090303186626 40.7459031701811),Near Ballfield,Kissena Park,4,Active,40.74590317,-73.81090303
A,POINT (-73.89293578789773 40.6290065308492),"Out in Open, Near Ballfield",Canarsie Park,3,Active,40.62900653,-73.89293579
A,POINT (-73.91373062337226 40.66214588516702),"Under Tree, In Shade",Betsy Head Park,3,Active,40.66214589,-73.91373062
A,POINT (-73.94282703420701 40.678260548284065),"Near Ballfield, In Playground",St. Andrew's Playground,3,Active,40.67826055,-73.94282703
A,POINT (-73.8527634409574 40.73598175391941),In Playground,Playground Sixty Two LXII,4,Active,40.73598175,-73.85276344
C,POINT (-74.16276532524505 40.61976673327574),Out in Open,Jennifer's Playground,5,Active,40.61976673,-74.16276533
C,POINT (-73.94921759388254 40.74756422946874),"Near Ballfield, Out in Open",Murray Playground,4,Active,40.74756423,-73.94921759
Pedestal,POINT (-74.19724704998616 40.5613017398295),Near Ballfield,Freshkills Park,5,Active,40.56130174,-74.19724705
Trough,POINT (-73.9303285585562 40.827188668778426),Out in Open,Macombs Dam Park,2,Active,40.82718867,-73.93032856
C,POINT (-73.91365078039611 40.83618063687335),Out in Open,Grant Park,2,Active,40.83618064,-73.91365078
E Wheelchair Child,POINT (-73.8426050906633 40.84061235789907),Out in Open,Owen F. Dolen Park,2,Active,40.84061236,-73.84260509
D,POINT (-73.86404138631929 40.890777343654484),In Playground,Bronx River Parkway,2,Active,40.89077734,-73.86404139
E Wheelchair,POINT (-73.94683636751311 40.63753102802805),"Out in Open, Near Ballfield",Nostrand Playground,3,Active,40.63753103,-73.94683637
C,POINT (-73.8889576283587 40.81526264548716),In Playground,Julio Carballo Fields,2,Active,40.81526265,-73.88895763
E Wheelchair,POINT (-74.01596779848006 40.70260399561268),Under Tree,The Battery,1,Active,40.702604,-74.0159678
A,POINT (-73.94760287109482 40.70614733472294),Near Ballfield,Sternberg Park,3,Active,40.70614733,-73.94760287
C,POINT (-73.99675316511679 40.57836301107772),"Out in Open, In Playground",Kaiser Park,3,Active,40.57836301,-73.99675317
E Wheelchair,POINT (-73.97572557550173 40.57349615260316),Out in Open,Coney Island Beach & Boardwalk,3,Active,40.57349615,-73.97572558
A,POINT (-73.85017982454814 40.66501359088188),Out in Open,Harold Schneiderman Playground,4,Active,40.66501359,-73.85017982
C,POINT (-74.03844842816625 40.63407325595739),Near Ballfield,Shore Park and Parkway,3,Active,40.63407326,-74.03844843
B,POINT (-73.93268037495604 40.80562802505406),Near Ballfield,Harlem River Park,1,Active,40.80562803,-73.93268037
C,POINT (-73.87780644602857 40.842724546371436),"Out in Open, In Playground",Bronx Park,2,Active,40.84272455,-73.87780645
C,POINT (-74.01303252862796 40.6323429778734),Near Ballfield,Quaker Parrot Park at the Dust Bowl,3,Active,40.63234298,-74.01303253
A,POINT (-73.91236649736705 40.611619890288836),"Near Ballfield, Out in Open",Lindower Park,3,Active,40.61161989,-73.9123665
A,POINT (-73.76521862550268 40.77251172318),Out in Open,Cross Island Parkway,4,Active,40.77251172,-73.76521863
D,POINT (-73.84542565370121 40.838936747049694),,The Pearly Gates,2,Active,40.83893675,-73.84542565
C,POINT (-73.89024000457235 40.667366746129055),In Playground,Martin Luther King Jr. Playground,3,Active,40.66736675,-73.89024
C,POINT (-73.92417335939491 40.83331969199249),"Out in Open, Near Ballfield",Mullaly Park,2,Active,40.83331969,-73.92417336
D,POINT (-73.92549746169449 40.66709164536252),Out in Open,Lincoln Terrace / Arthur S. Somers Park,3,Active,40.66709165,-73.92549746
A,POINT (-73.84527476821374 40.74743577382117),Under Tree,Flushing Meadows Corona Park,4,Active,40.74743577,-73.84527477
C,POINT (-73.9271327698568 40.61817913321108),"Under Tree, Out in Open, In Playground",Power Playground,3,Active,40.61817913,-73.92713277
C,POINT (-74.03015708041453 40.64052403518205),Just Outside Playground,Owl's Head Park,3,Active,40.64052404,-74.03015708
A,POINT (-73.978424764258 40.74196947859772),In Playground,Vincent F. Albano Jr. Playground,1,Active,40.74196948,-73.97842476
C,POINT (-73.9444885031784 40.774097113819096),In Playground,Carl Schurz Park,1,Active,40.77409711,-73.9444885
C,POINT (-73.9418616029679 40.8025113230147),Near Ballfield,Eugene McCabe Field,1,Active,40.80251132,-73.9418616
A,POINT (-73.87122286524018 40.859045340318566),Out in Open,Bronx Park,2,Active,40.85904534,-73.87122287
E Wheelchair Dog,POINT (-73.95552037260236 40.791608776151946),Out in Open,Central Park,1,Active,40.79160878,-73.95552037
A,POINT (-73.93392522714005 40.60669822400518),Near Ballfield,Marine Park,3,Active,40.60669822,-73.93392523
A,POINT (-73.936438552294 40.82900639375079),"Under Tree, In Playground, Near Ballfield",Holcombe Rucker Park,1,Active,40.82900639,-73.93643855
E Wheelchair Dog,POINT (-73.94990590594197 40.79682564629575),"Under Tree, In Shade",Central Park,1,Active,40.79682565,-73.94990591
E High Low,POINT (-73.92289938217765 40.64394105390567),"Out in Open, Near Ballfield",Harry Maze Playground,3,Active,40.64394105,-73.92289938
D,POINT (-73.89667287303713 40.81947608195389),Near Ballfield,Rainey Park,2,Active,40.81947608,-73.89667287
A,POINT (-73.89696154358069 40.69750798970862),In Playground,Evergreen Park,4,Active,40.69750799,-73.89696154
D,POINT (-74.08128463392868 40.59574086963549),In Playground,Old Town Playground,5,Active,40.59574087,-74.08128463
A,POINT (-74.00410576051061 40.74661845690148),"Under Tree, In Shade, In Playground",Clement Clarke Moore Park,1,Active,40.74661846,-74.00410576
A,POINT (-74.00275612463598 40.728070303089964),"Under Tree, In Playground",Playground of the Americas,1,Active,40.7280703,-74.00275612
B,POINT (-73.99645526229924 40.688318187398835),"In Shade, In Playground",Cobble Hill Park,3,Active,40.68831819,-73.99645526
Trough,POINT (-73.90587278877067 40.82885437255689),Out in Open,Estella Diggs Park,2,Active,40.82885437,-73.90587279
E Wheelchair,POINT (-73.89555075072332 40.88158376611418),Under Tree,Fort Independence Playground,2,Active,40.88158377,-73.89555075
E Wheelchair Dog,POINT (-73.97264025669674 40.65468440108357),"Out in Open, Just Outside Playground",Prospect Park,3,Active,40.6546844,-73.97264026
E Wheelchair Dog,POINT (-74.01626796911216 40.704375763472086),"Under Tree, In Shade",The Battery,1,Active,40.70437576,-74.01626797
E Wheelchair,POINT (-73.94991467190484 40.79682749793056),"Under Tree, In Shade",Central Park,1,Active,40.7968275,-73.94991467
C,POINT (-73.99740400582272 40.696232108896744),"Under Tree, Out in Open, In Playground",Pierrepont Playground,3,Active,40.69623211,-73.99740401
A,POINT (-73.97664558074686 40.65023926719485),In Playground,Greenwood Playground,3,Active,40.65023927,-73.97664558
A,POINT (-73.87913371865373 40.72971270529313),"In Shade, Under Tree",Crowley Playground,4,Active,40.72971271,-73.87913372
D,POINT (-74.20873374868783 40.535206327574215),In Playground,Bloomingdale Park,5,Active,40.53520633,-74.20873375
E Wheelchair,POINT (-74.0056436205132 40.72016157188954),Under Tree,Tribeca Park,1,Active,40.72016157,-74.00564362
E Wheelchair Dog,POINT (-74.00765340106048 40.67817858544205),"Just Outside Playground, In Shade, Under Tree",Coffey Park,3,Active,40.67817859,-74.00765340000002
A,POINT (-74.01216904203022 40.64949212242323),In Playground,Pena Herrera Park,3,Active,40.64949212,-74.01216904
A,POINT (-73.8981264715423 40.7069683947598),"Under Tree, Just Outside Playground",Benninger Playground,4,Active,40.70696839,-73.89812647
C,POINT (-73.96461148166287 40.58238352169368),"In Playground, Under Tree, In Shade",Grady Playground,3,Active,40.58238352,-73.96461148
Other,POINT (-73.9867294766024 40.77364401900477),"Under Tree, Near Ballfield, In Playground",Samuel N. Bennerson 2nd Playground,1,Active,40.77364402,-73.98672948
C,POINT (-73.92321519095658 40.64328225765196),"Out in Open, In Playground",Harry Maze Playground,3,Active,40.64328226,-73.92321519
E Wheelchair,POINT (-73.93635489027649 40.71579542348026),Near Ballfield,Cooper Park,3,Active,40.71579542,-73.93635489
E Wheelchair,POINT (-73.86269215608193 40.57558372543684),Out in Open,Gwirtzman Triangle,4,Active,40.57558373,-73.86269216
A,POINT (-73.989170924334 40.58275002620619),"Near Ballfield, Out in Open",Coney Island Boat Basin,3,Active,40.58275003,-73.98917092
E Wheelchair,POINT (-73.98596757865417 40.60907927024916),"Out in Open, Just Outside Playground",Seth Low Playground/ Bealin Square,3,Active,40.60907927,-73.98596758
A,POINT (-73.98679232377607 40.783153008846746),"Out in Open, Just Outside Playground",Riverside Park,1,Active,40.78315301,-73.98679232
D,POINT (-73.98836849279384 40.779819939885506),Out in Open,Riverside Park South,1,Active,40.77981994,-73.98836849
C,POINT (-74.00207383450633 40.74167978046713),"Under Tree, Near Ballfield, In Playground",Dr. Gertrude B. Kelly Playground,1,Active,40.74167978,-74.00207383
D,POINT (-73.98615357749681 40.72182815042258),"Under Tree, In Playground, Near Ballfield",ABC Playground,1,Active,40.72182815,-73.98615358
A,POINT (-74.00242324019956 40.728720035704896),"Near Ballfield, In Shade, Under Tree",William F. Passannante Ballfield,1,Active,40.72872004,-74.00242324
C,POINT (-73.96063396740394 40.689169746695875),"Under Tree, Out in Open, In Playground",Classon Playground,3,Active,40.68916975,-73.96063397
D,POINT (-73.84284225436608 40.86797014781078),"Under Tree, In Shade, In Playground",Givan Square,2,Active,40.86797015,-73.84284225
A,POINT (-73.89012002485642 40.68744983352633),In Shade,Highland Park,4,Active,40.68744983,-73.89012002
A,POINT (-73.84827834835478 40.7413774215049),"Near Ballfield, Just Outside Playground",Flushing Meadows Corona Park,4,Active,40.74137742,-73.84827835
Other,POINT (-73.90361858293153 40.72753093738066),Under Tree,Frank Principe Park,4,Active,40.72753094,-73.90361858
C,POINT (-73.84054373798779 40.74843557294201),Out in Open,Flushing Meadows Corona Park,4,Active,40.74843557,-73.84054374
C,POINT (-73.89174157523 40.70672395379085),Near Ballfield,Mafera Park,4,Active,40.70672395,-73.89174158
C,POINT (-73.98431040351434 40.62413569050602),"Out in Open, Just Outside Playground",Gravesend Park,3,Active,40.62413569,-73.9843104
C,POINT (-73.80840666300054 40.74231161084717),"Out in Open, In Playground",Kissena Park,4,Active,40.74231161,-73.80840666
Other,POINT (-74.01732013952734 40.714483216482776),Under Tree,Battery Park City,1,Active,40.71448322,-74.01732014
E Wheelchair,POINT (-73.99723548023358 40.730531638686465),Out in Open,Washington Square Park,1,Active,40.73053164,-73.99723548
Bottle Filler High Low,POINT (-73.93582212473594 40.69271001533729),In Playground,Eleanor Roosevelt Playground,3,Active,40.69271002,-73.93582212
Other,POINT (-73.91790713178757 40.68524778613296),"Under Tree, In Playground",Saratoga Park,3,Active,40.68524779,-73.91790713
D,POINT (-73.84286532195077 40.70096389120773),In Playground,Forest Park,4,Active,40.70096389,-73.84286532
E Wheelchair,POINT (-73.93378933718269 40.67505033840249),Out in Open,St. John's Recreation Center,3,Active,40.67505034,-73.93378934
E Wheelchair,POINT (-73.99788621883397 40.71025918521188),Near Ballfield,Alfred E. Smith Playground,1,Active,40.71025919,-73.99788622
A,POINT (-74.00603792901745 40.67243037464138),Out in Open,Red Hook Recreation Area,3,Active,40.67243037,-74.00603793
D,POINT (-73.84193500452582 40.74043145266937),"Under Tree, Out in Open",Grand Central Parkway Extension,4,Active,40.74043145,-73.84193499999998
A,POINT (-73.78503319693438 40.70318723462273),In Shade,Detective Keith L Williams Park,4,Active,40.70318723,-73.7850332
A,POINT (-74.0915896986128 40.62859818225005),Out in Open,Silver Lake Park,5,Active,40.62859818,-74.0915897
Bottle Filler Fountain,POINT (-73.9679238156743 40.65340702987699),"Under Tree, In Shade, Out in Open",Prospect Park,3,Active,40.65340703,-73.96792382
E Wheelchair,POINT (-73.98334929585143 40.57265277440958),Out in Open,Coney Island Beach & Boardwalk,3,Active,40.57265277,-73.9833493
E Wheelchair,POINT (-73.8849788948564 40.73068049024014),Out in Open,Elmhurst Park,4,Active,40.73068049,-73.88497889
Other,POINT (-73.93028739438122 40.86380628332326),Under Tree,Fort Tryon Park,1,Active,40.86380628,-73.93028739
A,POINT (-74.00458783283666 40.67265569646671),Out in Open,Red Hook Recreation Area,3,Active,40.6726557,-74.00458783
Other,POINT (-73.95225380388891 40.81798196839418),"Near Ballfield, Just Outside Playground",Annunciation Playground,1,Active,40.81798197,-73.9522538
A,POINT (-73.96787068343025 40.66972476180353),,Prospect Park,3,Active,40.66972476,-73.96787068
E Wheelchair,POINT (-73.99456136523115 40.57143607922636),Out in Open,Coney Island Beach & Boardwalk,3,Active,40.57143608,-73.99456137
A,POINT (-74.01097258666516 40.602585425577026),Under Tree,Bath Beach Park,3,Active,40.60258543,-74.01097259
D,POINT (-74.06521231709507 40.59103751430641),Near Ballfield,Franklin D. Roosevelt Boardwalk and Beach,5,Active,40.59103751,-74.06521232
CS Metal,POINT (-74.0191765917712 40.653293181653964),Near Ballfield,Bush Terminal Park,3,Active,40.65329318,-74.01917659
B,POINT (-73.9770010567385 40.77181245060542),"Under Tree, In Shade, Out in Open",Central Park,1,Active,40.77181245,-73.97700106
A,POINT (-73.81413047599146 40.82326347481371),"Under Tree, Out in Open",Bicentennial Veterans Memorial Park,2,Active,40.82326347,-73.81413048
CS Concrete,POINT (-74.1856786050053 40.52220468774808),In Playground,E.M.T. Christopher J. Prescott Playground,5,Active,40.52220469,-74.18567861
E Wheelchair,POINT (-73.88955071395726 40.88111539722074),Out in Open,Jerome Park,2,Active,40.8811154,-73.88955071
E,POINT (-73.89500318525224 40.83659810260071),Out in Open,Crotona Park,2,Active,40.8365981,-73.89500319
Pedestal,POINT (-73.91776206778891 40.795585942010305),"Out in Open, Near Ballfield",Randall's Island Park,1,Active,40.79558594,-73.91776207
B,POINT (-73.98213149639126 40.72694687963521),"In Playground, Near Ballfield",Tompkins Square Park,1,Active,40.72694688,-73.9821315
C,POINT (-73.85805850211362 40.761448944119955),Out in open,Grand Central Parkway Extension,4,Active,40.76144894,-73.8580585
CS Concrete,POINT (-73.88681473569041 40.65577893501757),In Playground,Ethan Allen Playground,3,Active,40.65577894,-73.88681474
A,POINT (-73.96609333401265 40.65280063770007),"Out in Open, Near Ballfield",Parade Ground,3,Active,40.65280064,-73.96609333
A,POINT (-73.91019192033649 40.747358743599634),"Under Tree, Just Outside Playground",Lawrence Virgilio Playground,4,Active,40.74735874,-73.91019192
A,POINT (-73.80520669896744 40.73623136862756),Out in Open,Electric Playground,4,Active,40.73623137,-73.8052067
A,POINT (-74.08754251070087 40.571007811391695),Out in Open,Franklin D. Roosevelt Boardwalk and Beach,5,Active,40.57100781,-74.08754251
D,POINT (-74.08997208516342 40.639260871276015),Under Tree,Jones Woods Park,5,Active,40.63926087,-74.08997209
E Wheelchair,POINT (-73.97273628820487 40.722371907752894),Near Ballfield,John V. Lindsay East River Park,1,Active,40.72237191,-73.97273629
A,POINT (-73.92370872268175 40.70387700188239),Near Ballfield,Maria Hernandez Park,3,Active,40.703877,-73.92370872
E Wheelchair,POINT (-73.82510496905898 40.84842752173045),In Playground,Pelham Bay Park,2,Active,40.84842752,-73.82510497
A,POINT (-73.78830235140744 40.870273344908526),Out in Open,Pelham Bay Park,2,Active,40.87027334,-73.78830235
C,POINT (-73.90600050343777 40.871998228777244),"In Playground, Under Tree",Riverbend Playground,2,Active,40.87199823,-73.9060005
A,POINT (-73.83858288889434 40.746351331325),Under Tree,Flushing Meadows Corona Park,4,Active,40.74635133,-73.83858289
D,POINT (-73.78052005246587 40.692604681103276),Near Ballfield,St. Albans Park,4,Active,40.69260468,-73.78052005
A,POINT (-73.90405111042894 40.84532084113905),"Under Tree, In Playground",Cleopatra Playground,2,Active,40.84532084,-73.90405111
C,POINT (-73.93587725987466 40.60866654657479),Just Outside Playground,Marine Park,3,Active,40.60866655,-73.93587726
Other,POINT (-73.87389306702221 40.82760138690749),Near Ballfield,Bronx River Parkway,2,Active,40.82760139,-73.87389307
E Wheelchair,POINT (-74.00111261958646 40.57213276830626),Out in Open,Coney Island Beach & Boardwalk,3,Active,40.57213277,-74.00111262
A,POINT (-73.88051286062016 40.720995595053274),Near Ballfield,Juniper Valley Park,4,Active,40.7209956,-73.88051286
E Wheelchair,POINT (-74.19250697632565 40.591001423913646),Out in Open,Sylvan Grove Cemetery,5,Active,40.59100142,-74.19250698
B,POINT (-74.13466278402355 40.61984365004865),Out in Open,Westerleigh Park,5,Active,40.61984365,-74.13466278
A,POINT (-73.9691489279804 40.804408594806674),Out in Open,Riverside Park,1,Active,40.80440859,-73.96914893
E Wheelchair Dog,POINT (-74.01471544935625 40.70395441591994),Under Tree,The Battery,1,Active,40.70395442,-74.01471545
C,POINT (-73.94047251379399 40.57753166184566),In Playground,Manhattan Beach Park,3,Active,40.57753166,-73.94047251
C,POINT (-73.99534397138845 40.578349376402066),"Out in Open, In Playground",Kaiser Park,3,Active,40.57834938,-73.99534397
A,POINT (-74.15196450426406 40.54688671148682),In Playground,Great Kills Park,5,Active,40.54688671,-74.1519645
C,POINT (-73.88155228547986 40.817842880718885),In Shade,Hunts Point Riverside Park,2,Active,40.81784288,-73.88155229
A,POINT (-73.86143222936266 40.74837284759702),"Out in Open, Near Ballfield",Park Of The Americas,4,Active,40.74837285,-73.86143223
D,POINT (-73.92668871045217 40.825681248284084),"In Playground, Out in Open",River Avenue Parks,2,Active,40.82568125,-73.92668871
A,POINT (-73.98557825465977 40.59445497597914),"Under Tree, In Shade, In Playground",Lafayette Playground,3,Active,40.59445498,-73.98557825
A,POINT (-73.81283797164888 40.74662148033163),Near Ballfield,Kissena Park,4,Active,40.74662148,-73.81283797
C,POINT (-73.91828394471898 40.69500513094034),Near Ballfield,Heckscher Playground,3,Active,40.69500513,-73.91828394
C,POINT (-73.90659335217818 40.66743308415018),"Under Tree, In Shade, Out in Open, Just Outside Playground",Dr. Green Playground,3,Active,40.66743308,-73.90659335
A,POINT (-73.96226718672769 40.69258282643545),"In Playground, Under Tree",Pratt Playground,3,Active,40.69258283,-73.96226719
A,POINT (-73.79191509523044 40.8687291974809),Under Tree,Pelham Bay Park,2,Active,40.8687292,-73.7919151
C,POINT (-73.92188003326336 40.65865993363679),"Out in Open, In Playground, In Shade",Kennedy King Playground,3,Active,40.65865993,-73.92188003
D,POINT (-73.76791162023117 40.599778213914504),Near Ballfield,Bayswater Park,4,Active,40.59977821,-73.76791162
CS Concrete,POINT (-73.98479840907665 40.78340932136799),In Playground,Riverside Park,1,Active,40.78340932,-73.98479841
A,POINT (-73.92538193790725 40.593855511780106),Near Ballfield,Marine Park,3,Active,40.59385551,-73.92538194
E Wheelchair Child,POINT (-73.86805122557668 40.70256506964099),Just Outside Playground,Forest Park,4,Active,40.70256507,-73.86805123
A,POINT (-73.97353281427336 40.681230758584164),"In Playground, Under Tree",Dean Playground,3,Active,40.68123076,-73.97353281
A,POINT (-73.83667393325119 40.75036644999488),Out in Open,Flushing Meadows Corona Park,4,Active,40.75036645,-73.83667393
C,POINT (-73.77935109405628 40.770977006862765),In Playground,Kennedy Playground,4,Active,40.77097701,-73.77935109
A,POINT (-73.99325276537682 40.71111848324132),"Under Tree, In Shade, Near Ballfield, Just Outside Playground",Coleman Playground,1,Active,40.71111848,-73.99325277
C,POINT (-73.93929021771686 40.816874573784006),"Under Tree, In Shade, Near Ballfield, Just Outside Playground",Fred Samuel Playground,1,Active,40.81687457,-73.93929022
Bottle Filler High Low,POINT (-73.9787995932386 40.66157561227531),Out in Open,Prospect Park,3,Active,40.66157561,-73.97879959
B,POINT (-73.97063653740511 40.80477809407796),Near Ballfield,Riverside Park,1,Active,40.80477809,-73.97063654
Bottle Filler High Low,POINT (-73.98363708335415 40.71430206756223),"Under Tree, Near Ballfield, In Playground",Sol Lain Plgd,1,Active,40.71430207,-73.98363708
F Dog,POINT (-73.99040200383057 40.71899775155472),Out in Open,Allen Mall One,1,Active,40.71899775,-73.990402
E High Low,POINT (-74.00327635209798 40.72681874070257),Under Tree,Father Fagan Park,1,Active,40.72681874,-74.00327635
D,POINT (-73.99299607150836 40.595401272190536),Out in Open,Bath Playground,3,Active,40.59540127,-73.99299607
CS Metal,POINT (-73.87185006485875 40.83686403090535),"In Playground, In Shade, Near Ballfield",Noble Playground,2,Active,40.83686403,-73.87185006
Other,POINT (-73.85469975031256 40.67328075916452),Under Tree,Tudor Park,4,Active,40.67328076,-73.85469975
B,POINT (-73.98196589475974 40.78744082797004),"Out in Open, Just Outside Playground",Riverside Park,1,Active,40.78744083,-73.98196589
E High Low,POINT (-73.97645262284233 40.661363796484146),"Near Ballfield, Out in Open",Prospect Park,3,Active,40.6613638,-73.97645262
Other,POINT (-73.98939109825608 40.71006827391881),"Near Ballfield, In Shade",East River Waterfront Esplanade,1,Active,40.71006827,-73.98939109999998
C,POINT (-73.8625945007143 40.666701390972364),In Playground,Pink Playground,3,Active,40.66670139,-73.8625945
B,POINT (-73.91847504463269 40.882438715088384),"Under Tree, In Shade",Henry Hudson Park,2,Active,40.88243872,-73.91847504
A,POINT (-73.92780848257186 40.66648064901835),"Under Tree, In Playground",Lincoln Terrace / Arthur S. Somers Park,3,Active,40.66648065,-73.92780848
C,POINT (-73.96835932308288 40.61027188941506),"Under Tree, In Playground, Out in Open",Colonel David Marcus Playground,3,Active,40.61027189,-73.96835932
E Wheelchair,POINT (-73.89850396485852 40.88683456118932),"Out in Open, Just Outside Playground",Van Cortlandt Park,2,Active,40.88683456,-73.89850396
Trough,POINT (-73.81683258927696 40.58289594243219),Out in Open,Rockaway Beach Boardwalk,4,Active,40.58289594,-73.81683259
D,POINT (-74.2099058534571 40.535052781824554),Near Ballfield,Bloomingdale Park,5,Active,40.53505278,-74.20990585
A,POINT (-73.70951864446057 40.74479172657429),Near Ballfield,Playground Eighty LXXX,4,Active,40.74479173,-73.70951864
A,POINT (-73.8874348065363 40.657974942291574),"Under Tree, In Playground",Linden Park,3,Active,40.65797494,-73.88743481
A,POINT (-73.97211178052817 40.618544523089255),Just Outside Playground,Friends Field,3,Active,40.61854452,-73.97211178
D,POINT (-73.9608893755546 40.70067785100997),"Under Tree, In Shade, Just Outside Playground",Penn Triangle,3,Active,40.70067785,-73.96088938
Other,POINT (-73.87356298753475 40.81947019797398),Just Outside Playground,Soundview Park,2,Active,40.81947020000001,-73.87356299
A,POINT (-73.80921625429845 40.58808967752658),Near Ballfield,Hammel Playground,4,Active,40.58808968,-73.80921625
A,POINT (-73.90515858242404 40.72714173726125),Near Ballfield,Frank Principe Park,4,Active,40.72714174,-73.90515858
E Wheelchair Dog,POINT (-73.96726162061226 40.78473441504241),"Under Tree, Out in Open",Central Park,1,Active,40.78473442,-73.96726162
D,POINT (-73.97478656426448 40.69195664033945),Out in Open,Fort Greene Park,3,Active,40.69195664,-73.97478656
F High Low,POINT (-73.83455147576306 40.852269040419785),Out in Open,Colucci Playground,2,Active,40.85226904,-73.83455148
E Wheelchair,POINT (-73.95477431579909 40.743338875455436),"Under Tree, In Playground",Andrews Grove,4,Active,40.74333888,-73.95477432
B,POINT (-73.93709618310483 40.793221853349586),"Under Tree, Near Ballfield",Thomas Jefferson Park,1,Active,40.79322185,-73.93709618
B,POINT (-73.9512316011198 40.79707362891633),"Under Tree, In Shade, Just Outside Playground",Central Park,1,Active,40.79707363,-73.9512316
E Wheelchair,POINT (-73.97459236798586 40.78223535552133),"In Shade, Under Tree",Theodore Roosevelt Park,1,Active,40.78223536,-73.97459237
Bottle Filler High Low,POINT (-73.82222970159874 40.84888173188497),Near Ballfield,Pelham Bay Park,2,Active,40.84888173,-73.82222970000002
A,POINT (-73.84229791403713 40.74354977969773),Under Tree,Flushing Meadows Corona Park,4,Active,40.74354978,-73.84229791
C,POINT (-73.86151414081283 40.8470366713112),In Playground,Matthews Muliner Playground,2,Active,40.84703667,-73.86151414
Bottle Filler High Low,POINT (-73.89513299350045 40.840059680520724),Out in Open,Crotona Park,2,Active,40.84005968,-73.89513299
A,POINT (-74.18755139568768 40.518972128285036),Out in Open,Wolfe's Pond Park,5,Active,40.51897213,-74.1875514
CS Concrete,POINT (-73.94727004007916 40.787169020114945),"Near Ballfield, In Playground",Cherry Tree Park,1,Active,40.78716902,-73.94727004
A,POINT (-73.82387524659333 40.876256830187415),Near Ballfield,Co-op City Field,2,Active,40.87625683,-73.82387525
C,POINT (-73.90012909274401 40.758712711346284),Near Ballfield,St. Michael's Playground,4,Active,40.75871271,-73.90012909
A,POINT (-73.92841162729212 40.665642015037726),Out in Open,Lincoln Terrace / Arthur S. Somers Park,3,Active,40.66564202,-73.92841163
Bottle Filler High Low,POINT (-73.8980871234534 40.88852457036656),Out in Open,Van Cortlandt Park,2,Active,40.88852457,-73.89808712
A,POINT (-73.96578294148955 40.686583573613724),In Playground,Greene Playground,3,Active,40.68658357,-73.96578294
A,POINT (-73.90079330467755 40.8742470100228),Out in Open,Washington's Walk,2,Active,40.87424701,-73.90079329999998
C,POINT (-73.71622191904082 40.74962500931249),In Playground,Glen Oaks Oval,4,Active,40.74962501,-73.71622192
A,POINT (-73.92091195466757 40.779556567904926),Out in Open,Astoria Park,4,Active,40.77955657,-73.92091195
C,POINT (-73.92259619317389 40.81589304066975),"Out in Open, Just Outside Playground",Patterson Playground,2,Active,40.81589304,-73.92259619
C,POINT (-73.88923359212791 40.8162316095212),Near Ballfield,Julio Carballo Fields,2,Active,40.81623161,-73.88923359
D,POINT (-74.21001574761195 40.533970266206694),Near Ballfield,Bloomingdale Park,5,Active,40.53397027,-74.21001575
E Wheelchair,POINT (-73.97271242318304 40.574033108446606),Out in Open,Coney Island Beach & Boardwalk,3,Active,40.57403311,-73.97271242
D,POINT (-73.83810694088092 40.77723144467796),"Out in Open, Near Ballfield",College Point Fields,4,Active,40.77723144,-73.83810694
C,POINT (-73.84350373687585 40.65710812383054),In Playground,Walter Ward Playground,4,Active,40.65710812,-73.84350374
C,POINT (-73.90946353721453 40.85015932655147),"Under Tree, In Playground",Mount Hope Playground,2,Active,40.85015933,-73.90946354
E Wheelchair,POINT (-73.97644941628674 40.69771118691468),"Under Tree, In Shade, Out in Open, In Playground",Oxport Playground,3,Active,40.69771119,-73.97644942
A,POINT (-73.74916994933886 40.61106362448738),Out in Open,Redfern Playground,4,Active,40.61106362,-73.74916995
Other,POINT (-73.77524655325786 40.72600858738745),Just Outside Playground,Cunningham Park,4,Active,40.72600859,-73.77524655
A,POINT (-73.80325400432397 40.7487613298217),"Under Tree, In Playground",Kissena Park,4,Active,40.74876133,-73.80325400000002
D,POINT (-73.89268168706737 40.63097552986464),"Out in Open, In Playground",Canarsie Park,3,Active,40.63097553,-73.89268169
A,POINT (-73.92829536814698 40.68007478602736),"Under Tree, In Playground",Jackie Robinson Park,3,Active,40.68007479,-73.92829537
C,POINT (-73.94329684034984 40.674318349792486),"Under Tree, In Playground",Brower Park,3,Active,40.67431835,-73.94329684
D,POINT (-73.74755981150741 40.59479343105285),Out in Open,Beach 17 Playground,4,Active,40.59479343,-73.74755981
D,POINT (-73.91671924846644 40.61437475634674),"Out in Open, Near Ballfield",Monsignor Crawford Field,3,Active,40.61437476,-73.91671925
Trough,POINT (-73.92859660976694 40.82872178154586),Out in Open,Macombs Dam Park,2,Active,40.82872178,-73.92859661
B,POINT (-73.97128349125805 40.76720587672378),"Under Tree, Out in Open",Central Park,1,Active,40.76720588,-73.97128349
Other,POINT (-73.79355815682896 40.86183272766086),Under Tree,Pelham Bay Park,2,Active,40.86183273,-73.79355816
C,POINT (-73.90979300439481 40.84289266802042),Out in Open,Mount Eden Malls,2,Active,40.84289267,-73.90979300000002
A,POINT (-73.89622748457938 40.887464204688726),Near Ballfield,Van Cortlandt Park,2,Active,40.8874642,-73.89622748
D,POINT (-74.06244221326189 40.593091448912816),Out in Open,Franklin D. Roosevelt Boardwalk and Beach,5,Active,40.59309145,-74.06244221
CS Metal,POINT (-73.99993807900395 40.59782139867739),In Shade,Bensonhurst Park,3,Active,40.5978214,-73.99993808
A,POINT (-73.82373136514626 40.7831416534909),Near Ballfield,Harvey Park,4,Active,40.78314165,-73.82373137
C,POINT (-73.97978634021463 40.71158359420065),"Under Tree, Near Ballfield, Just Outside Playground",Corlears Hook Park,1,Active,40.71158359,-73.97978634
E Wheelchair Dog,POINT (-73.97693283286225 40.76934533443018),"Under Tree, Near Ballfield, In Shade",Central Park,1,Active,40.76934533,-73.97693283
D,POINT (-73.75034177399733 40.594387916812536),Under Tree,Beach 17 Playground,4,Active,40.59438792,-73.75034177
A,POINT (-73.89069822648594 40.70827803841529),Near Ballfield,Mafera Park,4,Active,40.70827804,-73.89069823
D,POINT (-73.90955937561566 40.845261423927695),"Under Tree, In Playground",Morris Mesa,2,Active,40.84526142,-73.90955938
A,POINT (-73.72868074937386 40.684581737220924),In Shade,Delphin H. Greene Playground,4,Active,40.68458174,-73.72868075
E Wheelchair Child,POINT (-73.97428857282051 40.717194049937135),Near Ballfield,John V. Lindsay East River Park,1,Active,40.71719405,-73.97428857
A,POINT (-73.94680857504673 40.638371755823776),Out in Open,Nostrand Playground,3,Active,40.63837176,-73.94680858
CS Concrete,POINT (-73.87948523355769 40.65888206048171),Just Outside Playground,Jerome Playground,3,Active,40.65888206,-73.87948523
E Wheelchair,POINT (-73.91734330164635 40.641187108796494),"Out in Open, In Playground",Curtis Playground,3,Active,40.64118711,-73.9173433
E Wheelchair,POINT (-73.95486668626133 40.7433782458332),"Under Tree, In Playground",Andrews Grove,4,Active,40.74337825,-73.95486669
C,POINT (-73.78655753757077 40.696326264853816),Under Tree,Latimer Playground,4,Active,40.69632626,-73.78655754
A,POINT (-74.08949809922173 40.56931621845287),Out in Open,Franklin D. Roosevelt Boardwalk and Beach,5,Active,40.56931622,-74.08949809999999
A,POINT (-73.88612456104926 40.6654699871137),In Playground,Schenck Playground,3,Active,40.66546999,-73.88612456
C,POINT (-73.92338266577492 40.83339070921401),Near Ballfield,Mullaly Park,2,Active,40.83339071,-73.92338267
C,POINT (-74.00836527965573 40.652394956637636),In Playground,Gonzalo Plasencia Playground,3,Active,40.65239496,-74.00836528
B,POINT (-73.86080038126518 40.76408101455893),Out in Open,Grand Central Parkway Extension,4,Active,40.76408101,-73.86080038
C,POINT (-73.8086164479226 40.68394295625399),Near Ballfield,Frederick B. Judge Playground,4,Active,40.68394296,-73.80861645
A,POINT (-73.95235356163084 40.82943106855519),Near Ballfield,Recreational Area,1,Active,40.82943107,-73.95235356
B,POINT (-73.92978776130407 40.79120250548445),Out in Open,Wards Island Park,1,Active,40.79120251,-73.92978776
A,POINT (-73.944345649946 40.65898733356502),Out in Open,Wingate Park,3,Active,40.65898733,-73.94434565
D,POINT (-73.76382229409468 40.59270746802027),Near Ballfield,Beach 30th Street Playground,4,Active,40.59270747,-73.76382229
D,POINT (-73.94024373841951 40.588731903097994),In Playground,Sheepshead Playground,3,Active,40.5887319,-73.94024374
E Wheelchair,POINT (-73.94593251700869 40.59217759141378),Near Ballfield,Bill Brown Playground,3,Active,40.59217759,-73.94593252
A,POINT (-73.78398584133087 40.76017926178296),In Playground,Francis Lewis Playground,4,Active,40.76017926,-73.78398584
A,POINT (-73.8773058993385 40.89656233745274),Near Ballfield,Van Cortlandt Park,2,Active,40.89656234,-73.8773059
A,POINT (-74.13679130134888 40.55185886373156),Near Ballfield,Greencroft Playground,5,Active,40.55185886,-74.1367913
D,POINT (-73.8834910330884 40.685184828980034),Near Ballfield,Highland Park,3,Active,40.68518483,-73.88349103
D,POINT (-73.89020605334818 40.762017001493746),Near Ballfield,LaGuardia Landing Lights,4,Active,40.762017,-73.89020605
D,POINT (-73.90558524346994 40.728444987968125),Under Tree,Frank Principe Park,4,Active,40.72844499,-73.90558524
A,POINT (-73.95737530734596 40.59720514393153),In Playground,Mellett Playground,3,Active,40.59720514,-73.95737531
A,POINT (-73.74000210971529 40.69859719010109),Out in Open,East Springfield Playground,4,Active,40.69859719,-73.74000211
E Wheelchair Dog,POINT (-73.96796367522657 40.66160402944701),,Prospect Park,3,Active,40.66160403,-73.96796368
A,POINT (-73.83956517562031 40.87276699816857),"Near Ballfield, In Shade",Haffen Park,2,Active,40.872767,-73.83956518
C,POINT (-74.00174438107659 40.7506021102256),Near Ballfield,Chelsea Park,1,Active,40.75060211,-74.00174438
E Wheelchair,POINT (-74.00644921237249 40.72955519057997),"Near Ballfield, In Shade",James J Walker Park,1,Active,40.72955519,-74.00644921
A,POINT (-73.90498019397498 40.90213245035881),,Vinmont Veteran Park,2,Active,40.90213245,-73.90498019
C,POINT (-73.9050217309777 40.67097571069354),Out in Open,Powell Playground,3,Active,40.67097571,-73.90502173
B,POINT (-73.94486762369789 40.77437195733978),Under Tree,Carl Schurz Park,1,Active,40.77437196,-73.94486762
E Wheelchair,POINT (-73.94296996968937 40.576766910276824),Out in Open,Manhattan Beach Park,3,Active,40.57676691,-73.94296997
E Wheelchair,POINT (-73.95544163235903 40.79301288606251),"Out in Open, Near Ballfield",Central Park,1,Active,40.79301289,-73.95544163
A,POINT (-73.9729275684851 40.680530515642346),Out in Open,Dean Playground,3,Active,40.68053052,-73.97292757
E Wheelchair,POINT (-73.95852884046842 40.57528917755433),Out in Open,Coney Island Beach & Boardwalk,3,Active,40.57528918,-73.95852884
E Wheelchair,POINT (-73.991805727361 40.57151850913321),Out in Open,Coney Island Beach & Boardwalk,3,Active,40.57151851,-73.99180573
E Wheelchair,POINT (-74.00270459989973 40.71482944342038),Under Tree,Thomas Paine Park,1,Active,40.71482944,-74.0027046
A,POINT (-73.83788860467307 40.7326717339893),Under Tree,Flushing Meadows Corona Park,4,Active,40.73267173,-73.8378886
C,POINT (-73.96267914214 40.692489139016075),"Under Tree, In Playground, Out in Open",Pratt Playground,3,Active,40.69248914,-73.96267914
F High Low,POINT (-73.81988311720148 40.8510772556585),Near Ballfield,Pelham Bay Park,2,Active,40.85107726,-73.81988312
A,POINT (-73.79049170894469 40.86964487171624),Out in Open,Pelham Bay Park,2,Active,40.86964487,-73.79049171
A,POINT (-73.89145089866159 40.7062962186976),Near Ballfield,Mafera Park,4,Active,40.70629622,-73.89145090000002
A,POINT (-73.93651323069257 40.605025646524886),Near Ballfield,Marine Park,3,Active,40.60502565,-73.93651323
C,POINT (-73.75373863572514 40.65515174574133),"Out in Open, Near Ballfield",Idlewild Park,4,Active,40.65515175,-73.75373864
D,POINT (-73.81716384870273 40.77616525281753),"In Playground, Under Tree, Out in Open",Flushing Fields,4,Active,40.77616525,-73.81716385
B,POINT (-73.89884513668771 40.81807777482017),Near Ballfield,Rainey Park,2,Active,40.81807777,-73.89884514
E Wheelchair,POINT (-73.98291599876396 40.5727041055281),Out in Open,Coney Island Beach & Boardwalk,3,Active,40.57270411,-73.982916
C,POINT (-73.90476930223892 40.74536028358231),"Under Tree, Out in Open",Woodside Memorial Plaza,4,Active,40.74536028,-73.9047693
C,POINT (-74.08596823437438 40.6423463761781),In Playground,Davis Playground,5,Active,40.64234638,-74.08596823
E Wheelchair,POINT (-73.88957891621057 40.75430233148645),Out in Open,Travers Park,4,Active,40.75430233,-73.88957892
F High Low,POINT (-74.00236482961249 40.602510174929016),Just Outside Playground,Benson Playground,3,Active,40.60251017,-74.00236483
Other,POINT (-74.01583001668354 40.70829847274274),"Under Tree, Near Ballfield, In Playground",Battery Park City Parks,1,Active,40.70829847,-74.01583002
A,POINT (-73.94044467775475 40.84702092385855),Near Ballfield,J. Hood Wright Park,1,Active,40.84702092,-73.94044468
A,POINT (-73.98114450675004 40.7157715469968),"Under Tree, Near Ballfield, In Playground",Luther Gulick Park,1,Active,40.71577155,-73.98114451
E Wheelchair Dog,POINT (-73.95413351369928 40.792974466372705),"Under Tree, Out in Open",Central Park,1,Active,40.79297447,-73.95413351
C,POINT (-73.81381151659627 40.82377681488919),Out in Open,Bicentennial Veterans Memorial Park,2,Active,40.82377681,-73.81381152
A,POINT (-73.84702869329777 40.74764967914436),Under Tree,Flushing Meadows Corona Park,4,Active,40.74764968,-73.84702869
Trough,POINT (-73.80641666947655 40.58588326936485),Out in Open,Rockaway Beach Boardwalk,4,Active,40.58588327,-73.80641667
A,POINT (-73.78490860543306 40.70406836590769),Out in Open,Detective Keith L Williams Park,4,Active,40.70406837,-73.78490861
Other,POINT (-73.91533645228073 40.82498261290126),"Under Tree, In Shade",Railroad Park,2,Active,40.82498261,-73.91533645
E Wheelchair,POINT (-73.90012295729882 40.835816802733426),"Out in Open, In Playground",Crotona Park,2,Active,40.8358168,-73.90012296
A,POINT (-74.09346100714173 40.62613802903975),Out in Open,Silver Lake Park,5,Active,40.62613803,-74.09346101
C,POINT (-73.94330046125377 40.77645076664795),Out in Open,Carl Schurz Park,1,Active,40.77645077,-73.94330046
D,POINT (-73.94273578685265 40.80335229349777),"Under Tree, Just Outside Playground, Near Ballfield",Marcus Garvey Park,1,Active,40.80335229,-73.94273579
E Wheelchair,POINT (-73.96314527474088 40.65848938286662),In Playground,Prospect Park,3,Active,40.65848938,-73.96314527
D,POINT (-73.92556675826204 40.68792988587178),In Playground,P.O. Reinaldo Salgado Playground,3,Active,40.68792989,-73.92556676
A,POINT (-73.91724687202391 40.886502734426706),Out in Open,Seton Park,2,Active,40.88650273,-73.91724687
C,POINT (-73.91166654523961 40.71068340344151),Near Ballfield,Grover Cleveland Playground,4,Active,40.7106834,-73.91166655
B,POINT (-73.99050424504074 40.736044658254805),"Under Tree, Just Outside Playground",Union Square Park,1,Active,40.73604466,-73.99050425
E Wheelchair Dog,POINT (-73.99751797569215 40.73015890846361),Under Tree,Washington Square Park,1,Active,40.73015891,-73.99751798
C,POINT (-73.72911227485932 40.7259714298084),Near Ballfield,Breininger Park,4,Active,40.72597143,-73.72911227
C,POINT (-73.9242414998328 40.70301673353511),In Playground,Maria Hernandez Park,3,Active,40.70301673,-73.92424150000002
C,POINT (-73.85201564444567 40.82352387672551),Near Ballfield,P.O. Serrano Playground,2,Active,40.82352388,-73.85201564
A,POINT (-73.78664900636191 40.68427886137332),Near Ballfield,Baisley Pond Park,4,Active,40.68427886,-73.78664901
E Wheelchair,POINT (-73.98936667170479 40.697887782976984),Out in Open,Walt Whitman Park,3,Active,40.69788778,-73.98936667
A,POINT (-73.9512870342034 40.81334238790087),"Just Outside Playground, Near Ballfield",St. Nicholas Park,1,Active,40.81334239,-73.95128703
A,POINT (-73.7670057732436 40.773011689115634),In Shade,Crocheron Park,4,Active,40.77301169,-73.76700577
E Wheelchair,POINT (-73.99617593696658 40.69968810405638),,Brooklyn Heights Promenade,3,Active,40.6996881,-73.99617594
E Wheelchair,POINT (-73.96624849286184 40.65155283102098),"Out in Open, Near Ballfield",Parade Ground,3,Active,40.65155283,-73.96624849
E Wheelchair,POINT (-74.08451899374849 40.57328668050821),Out in Open,Franklin D. Roosevelt Boardwalk and Beach,5,Active,40.57328668,-74.08451899
Other,POINT (-73.93165190496376 40.85968363035928),Under Tree,Fort Tryon Park,1,Active,40.85968363,-73.9316519
A,POINT (-73.97421419172765 40.72151120803641),"Under Tree, Near Ballfield",John V. Lindsay East River Park,1,Active,40.72151121,-73.97421419
Bottle Filler,POINT (-73.95413571107098 40.721474100900615),Out in Open,McCarren Park,3,Active,40.7214741,-73.95413571
E Wheelchair Dog,POINT (-73.89352657037647 40.83795424047758),Out in Open,Crotona Park,2,Active,40.83795424,-73.89352657
Pedestal,POINT (-73.91740483754337 40.7935941544511),"Out in Open, Near Ballfield",Randall's Island Park,1,Active,40.79359415,-73.91740484
C,POINT (-73.82437861307285 40.66558174636374),"Out in Open, Near Ballfield",Belt Parkway,4,Active,40.66558175,-73.82437861
C,POINT (-73.91055443644689 40.809847097264004),Out in Open,St. Mary's Park,2,Active,40.8098471,-73.91055444
C,POINT (-73.84493954059175 40.762454009429746),Out in Open,Flushing Meadows Corona Park,4,Active,40.76245401,-73.84493954
A,POINT (-73.85581961268439 40.70137222682955),In Playground,Forest Park,4,Active,40.70137223,-73.85581961
CS Concrete,POINT (-73.90246456334198 40.77750888117137),In Shade,Woodtree Playground,4,Active,40.77750888,-73.90246456
E Wheelchair Child,POINT (-74.14323208553206 40.54030488999552),Out in Open,Seaside Wildlife Nature Park,5,Active,40.54030489,-74.14323209
A,POINT (-73.92413228034192 40.805113892302685),Out in Open,Pulaski Park,2,Active,40.80511389,-73.92413228
C,POINT (-73.77157770389326 40.757085689335575),In Playground,Marie Curie Park,4,Active,40.75708569,-73.7715777
E Wheelchair,POINT (-73.98979745645585 40.714542962475406),"Under Tree, In Playground",Seward Park,1,Active,40.71454296,-73.98979746
D,POINT (-73.99613916646689 40.71004412758884),"Just Outside Playground, Under Tree",Tanahey Playground,1,Active,40.71004413,-73.99613917
A,POINT (-73.93615993756026 40.81905304797238),"Just Outside Playground, Near Ballfield",Col. Young Playground,1,Active,40.81905305,-73.93615994
A,POINT (-73.90664302892628 40.66693542895917),"Under Tree, In Shade, Near Ballfield",Dr. Green Playground,3,Active,40.66693543,-73.90664303
D,POINT (-74.00290621446068 40.68023287489182),Near Ballfield,Dimattina Playground,3,Active,40.68023287,-74.00290621
A,POINT (-73.89390471086945 40.65427457609024),"Out in Open, Near Ballfield",Breukelen Ballfields,3,Active,40.65427458,-73.89390471
D,POINT (-73.85982902159667 40.822029747032445),In Playground,Space Time Playground,2,Active,40.82202975,-73.85982902
D,POINT (-73.76917756876092 40.60031520735161),Near Ballfield,Bayswater Park,4,Active,40.60031521,-73.76917757
C,POINT (-73.85775370204772 40.735368785644546),In Playground,Real Good Park,4,Active,40.73536879,-73.8577537
C,POINT (-74.16305725132673 40.61978216155909),Out in Open,Jennifer's Playground,5,Active,40.61978216,-74.16305725
D,POINT (-73.9080427371963 40.87752470260539),Out in Open,Marble Hill Playground,2,Active,40.8775247,-73.90804274
A,POINT (-73.89434430266533 40.670895310893535),Near Ballfield,Grace Playground,3,Active,40.67089531,-73.8943443
C,POINT (-73.96353104551014 40.697541269665834),"Out in Open, Under Tree",Steuben Playground,3,Active,40.69754127,-73.96353105
A,POINT (-73.9681415686957 40.649996608554225),"Out in Open, Near Ballfield",Parade Ground,3,Active,40.64999661,-73.96814157
CS Metal,POINT (-73.89840554589684 40.81867057368688),In Shade,Rainey Park,2,Active,40.81867057,-73.89840555
A,POINT (-73.91345485902924 40.744069143911744),"Under Tree, Out in Open",John Vincent Daniels Jr. Square,4,Active,40.74406914,-73.91345486
E High Low,POINT (-73.97465343431689 40.660912309419714),"Out in Open, Near Ballfield",Prospect Park,3,Active,40.66091231,-73.97465343
A,POINT (-73.96899382353656 40.65125724270747),"Out in Open, Near Ballfield",Parade Ground,3,Active,40.65125724,-73.96899382
D,POINT (-73.79819012360673 40.77817557314609),In Playground,Playground Twenty One,4,Active,40.77817557,-73.79819012
C,POINT (-73.99773544971664 40.696167682423514),Out in Open,Pierrepont Playground,3,Active,40.69616768,-73.99773545
E Wheelchair Dog,POINT (-73.99744670872579 40.7216410336852),Out in Open,Petrosino Square,1,Active,40.72164103,-73.99744671
A,POINT (-73.87734738017261 40.72043495841825),Under Tree,Juniper Valley Park,4,Active,40.72043496,-73.87734738
C,POINT (-73.97079104629894 40.69057082077203),In Playground,Albert J. Parham Playground,3,Active,40.69057082,-73.97079105
Other,POINT (-73.96617427899825 40.809102918660805),Out in Open,Riverside Park,1,Active,40.80910292,-73.96617428
C,POINT (-73.97084914677866 40.80194448473846),"In Playground, Under Tree",Riverside Park,1,Active,40.80194448,-73.97084915
C,POINT (-73.91844405646177 40.760746590776414),In Playground,Sean's Place,4,Active,40.76074659,-73.91844406
C,POINT (-73.94070658596053 40.577653650856824),In Playground,Manhattan Beach Park,3,Active,40.57765365,-73.94070659
Trough,POINT (-73.81095696301549 40.58452637976526),Out in Open,Rockaway Beach Boardwalk,4,Active,40.58452638,-73.81095696
D,POINT (-73.90540036003105 40.887885645185655),Out in Open,MacLaughlin Playground,2,Active,40.88788565,-73.90540036
A,POINT (-73.9255365724502 40.59398583673665),Near Ballfield,Marine Park,3,Active,40.59398584,-73.92553657
D,POINT (-73.95239407028299 40.664796408928154),In Playground,Dodger Playground,3,Active,40.66479641,-73.95239407
A,POINT (-73.92420108386099 40.77510228877486),In Playground,Astoria Park,4,Active,40.77510229,-73.92420108
A,POINT (-73.99120648884725 40.58174175115719),"Near Ballfield, Out in Open",Coney Island Boat Basin,3,Active,40.58174175,-73.99120649
C,POINT (-73.90777928489716 40.86308279297302),In Playground,Devoe Park,2,Active,40.86308279,-73.90777928
C,POINT (-73.87455392244763 40.75558175440177),Near Ballfield,Northern Playground,4,Active,40.75558175,-73.87455392
C,POINT (-74.01827993369056 40.63487667011093),Near Ballfield,Leif Ericson Park,3,Active,40.63487667,-74.01827993
A,POINT (-73.89536048315198 40.90774847263607),"Near Ballfield, Out in Open",Van Cortlandt Park,2,Active,40.90774847,-73.89536048
A,POINT (-73.86046183269059 40.733145265076004),Under Tree,Horace Harding Playground,4,Active,40.73314527,-73.86046183
A,POINT (-73.92665352030386 40.82196124902052),Out in Open,Franz Sigel Park,2,Active,40.82196125,-73.92665352
Other,POINT (-73.96159998227795 40.78087299592013),In Playground,Central Park,1,Active,40.780873,-73.96159998
E Wheelchair Child,POINT (-73.97575820330825 40.73655781199583),"Under Tree, Near Ballfield, Just Outside Playground",Asser Levy Playground,1,Active,40.73655781,-73.9757582
C,POINT (-73.93817870052592 40.60750773821811),"Under Tree, In Playground, Out in Open",Marine Park,3,Active,40.60750774,-73.9381787
A,POINT (-73.93872857923715 40.81384602181842),"Under Tree, In Playground, Near Ballfield",Howard Bennett Playground,1,Active,40.81384602,-73.93872858
Other,POINT (-73.89515254074993 40.898673498413864),Out in Open,Van Cortlandt Park,2,Active,40.8986735,-73.89515254
C,POINT (-73.94721963189696 40.6896253165074),"Near Ballfield, In Playground",Herbert Von King Park,3,Active,40.68962532,-73.94721963
C,POINT (-73.92632114042034 40.6666254302565),Under Tree,Lincoln Terrace / Arthur S. Somers Park,3,Active,40.66662543,-73.92632114
D,POINT (-73.74551741331825 40.5952751375957),In Playground,Beach 9 Playground,4,Active,40.59527514,-73.74551741
D,POINT (-73.96575617872509 40.68631912170171),In Playground,Greene Playground,3,Active,40.68631912,-73.96575618
A,POINT (-74.13525253403581 40.64093145202092),Out in Open,Faber Pool and Park,5,Active,40.64093145,-74.13525253
A,POINT (-73.87235681959838 40.73308851220176),"Under Tree, Near Ballfield",Hoffman Park,4,Active,40.73308851,-73.87235682
C,POINT (-73.90386307130875 40.8546314409781),"Out in Open, In Playground",Morris Garden,2,Active,40.85463144,-73.90386307
E Wheelchair,POINT (-73.9846332986786 40.594944376767614),"Out in Open, Near Ballfield",Scarangella Park,3,Active,40.59494438,-73.9846333
C,POINT (-73.77428593786618 40.72735065296106),"Just Outside Playground, Near Ballfield",Cunningham Park,4,Active,40.72735065,-73.77428594
A,POINT (-73.7095305313977 40.745072667535645),In Playground,Playground Eighty LXXX,4,Active,40.74507267,-73.70953053
A,POINT (-74.10095053575475 40.5856889265668),In Playground,Gen. Douglas MacArthur Park,5,Active,40.58568893,-74.10095054
D,POINT (-73.95787752371844 40.60374576338557),In Playground,Kelly Park,3,Active,40.60374576,-73.95787752
A,POINT (-73.89291270064504 40.62981831933225),"Near Ballfield, Out in Open",Canarsie Park,3,Active,40.62981832,-73.8929127
E Wheelchair Child,POINT (-73.87759181366683 40.74275545322957),"Under Tree, In Playground",Veterans Grove,4,Active,40.74275545,-73.87759181
E Wheelchair Dog,POINT (-73.97469350514939 40.690718337838575),Out in Open,Fort Greene Park,3,Active,40.69071834,-73.97469351
D,POINT (-73.86179723499026 40.74875433668758),Just Outside Playground,Park Of The Americas,4,Active,40.74875434,-73.86179723
E Wheelchair,POINT (-73.97146387210442 40.5740033732456),Out in Open,Coney Island Beach & Boardwalk,3,Active,40.57400337,-73.97146387
A,POINT (-73.85694935163774 40.681621604618584),In Playground,Ampere Playground,4,Active,40.6816216,-73.85694935
Other,POINT (-74.00451031870917 40.748153131441676),Out in Open,The High Line,1,Active,40.74815313,-74.00451032
B,POINT (-73.93516843177392 40.79259701030835),Near Ballfield,Thomas Jefferson Park,1,Active,40.79259701,-73.93516843
C,POINT (-73.90520855202423 40.68312611190852),"In Playground, Out in Open",Rudd Playground,3,Active,40.68312611,-73.90520855
C,POINT (-73.97267765700633 40.61881914216549),In Playground,Friends Field,3,Active,40.61881914,-73.97267766
CS Metal,POINT (-73.86695328552571 40.88431155506893),Just Outside Playground,Bronx River Parkway,2,Active,40.88431156,-73.86695329
C,POINT (-73.99462928481489 40.642316045973594),"In Playground, Out in Open",Brizzi Playground,3,Active,40.64231605,-73.99462928
Other,POINT (-74.01799736366748 40.704687683709565),Out in Open,Battery Park City,1,Active,40.70468768,-74.01799736
E Wheelchair,POINT (-74.01676046873212 40.70289570636861),Under Tree,The Battery,1,Active,40.70289571,-74.01676047
E Wheelchair Dog,POINT (-73.94668750681944 40.706212417618694),"Out in Open, Near Ballfield",Sternberg Park,3,Active,40.70621242,-73.94668751
E Wheelchair Dog,POINT (-73.96188108138335 40.788813677129546),"Under Tree, Out in Open",Central Park,1,Active,40.78881368,-73.96188108
A,POINT (-73.92731209837244 40.680015237593224),"Under Tree, In Playground",Jackie Robinson Park,3,Active,40.68001524,-73.9273121
D,POINT (-73.75807741008553 40.721638904006596),"In Playground, Under Tree",Bellaire Playground,4,Active,40.7216389,-73.75807741
C,POINT (-73.82222554814375 40.748916370432546),"Near Ballfield, Out in Open",Kissena Corridor Park,4,Active,40.74891637,-73.82222555
A,POINT (-73.78644251478116 40.68137364107141),Near Ballfield,Baisley Pond Park,4,Active,40.68137364,-73.78644251
Trough,POINT (-73.92825879902885 40.82642887902785),"Under Tree, Near Ballfield, In Shade",Macombs Dam Park,2,Active,40.82642888,-73.9282588
A,POINT (-73.83117156516535 40.75818595822228),"In Playground, Under Tree",Bland Playground,4,Active,40.75818596,-73.83117157
A,POINT (-73.79440862638616 40.59379175941249),"Out in Open, In Playground",Almeda Playground,4,Active,40.59379176,-73.79440863
B,POINT (-73.97615035782697 40.77375991073293),"Under Tree, In Shade",Central Park,1,Active,40.77375991,-73.97615036
E Wheelchair,POINT (-73.97301146844356 40.76968160139681),"Under Tree, Out in Open",Central Park,1,Active,40.7696816,-73.97301147
Pedestal,POINT (-73.91887256477433 40.79442060454564),"Out in Open, Near Ballfield",Randall's Island Park,1,Active,40.7944206,-73.91887256
C,POINT (-73.91992100745064 40.63649976991505),"Under Tree, Out in Open, In Playground",Glenwood Playground,3,Active,40.63649977,-73.91992101
A,POINT (-73.76758492617432 40.59877858273409),In Shade,Bayswater Park,4,Active,40.59877858,-73.76758493
C,POINT (-73.9650063562524 40.75236494568527),In Playground,MacArthur Playground,1,Active,40.75236495,-73.96500636
A,POINT (-73.80769308331078 40.74749977996859),Under Tree,Kissena Park,4,Active,40.74749978,-73.80769308
Pedestal,POINT (-73.84930591428468 40.807256438568764),Just Outside Playground,Pugsley Creek Park,2,Active,40.80725644,-73.84930591
Other,POINT (-73.95887023179465 40.665887631470184),Out in Open,Jackie Robinson Playground,3,Active,40.66588763,-73.95887023
E Wheelchair,POINT (-73.9708512153373 40.57430822977962),Out in Open,Coney Island Beach & Boardwalk,3,Active,40.57430823,-73.97085122
D,POINT (-73.83878821141921 40.7779324748894),"Under Tree, Out in Open",College Point Fields,4,Active,40.77793247,-73.83878821
C,POINT (-73.92688930813662 40.84662939584455),Out in Open,Bridge Park,2,Active,40.8466294,-73.92688931
E Wheelchair,POINT (-73.97474198078342 40.71573698704869),Near Ballfield,John V. Lindsay East River Park,1,Active,40.71573699,-73.97474198
E Wheelchair Child,POINT (-73.96771371285341 40.772086640052734),"Under Tree, In Playground",Central Park,1,Active,40.77208664,-73.96771371
C,POINT (-73.91084357913307 40.68606218716418),"Under Tree, In Shade, Near Ballfield",Evergreen Playground,3,Active,40.68606219,-73.91084358
D,POINT (-73.94754549799782 40.65582413715851),In Playground,Rolph Henry Playground,3,Active,40.65582414,-73.94754549999998
D,POINT (-74.07421406718215 40.63752389391882),Out in Open,Lyons Pool,5,Active,40.63752389,-74.07421407
C,POINT (-73.99335012018906 40.718638492253206),"Under Tree, Near Ballfield",Sara D. Roosevelt Park,1,Active,40.71863849,-73.99335012
D,POINT (-74.00015464885142 40.71479489278745),"Under Tree, Near Ballfield, Just Outside Playground",Columbus Park,1,Active,40.71479489,-74.00015465
B,POINT (-73.96120645822333 40.78142770475966),Out in Open,Central Park,1,Active,40.7814277,-73.96120646
Other,POINT (-73.91788506922906 40.69536266679138),Out in Open,Heckscher Playground,3,Active,40.69536267,-73.91788507
C,POINT (-73.99220001402612 40.57205438117076),"Out in Open, In Playground",Poseidon Playground,3,Active,40.57205438,-73.99220001
D,POINT (-73.92553526880458 40.66688764171478),Under Tree,Lincoln Terrace / Arthur S. Somers Park,3,Active,40.66688764,-73.92553527
A,POINT (-73.84526447410919 40.74741430989873),Under Tree,Flushing Meadows Corona Park,4,Active,40.74741431,-73.84526447
A,POINT (-73.88468926131762 40.72043086161211),Out in Open,Juniper Valley Park,4,Active,40.72043086,-73.88468926
CS Metal,POINT (-73.90888476772795 40.819833939661734),"Out in Open, In Playground",Grove Hill Playground,2,Active,40.81983394,-73.90888477
A,POINT (-74.09917451098038 40.628150040605405),Under Tree,Silver Lake Park,5,Active,40.62815004,-74.09917451
Trough High Low,POINT (-73.87043101811011 40.818002428562565),Just Outside Playground,Soundview Park,2,Active,40.81800243,-73.87043102
CS Concrete,POINT (-73.93554836950369 40.806566805784655),"In Playground, In Shade",Alice Kornegay Triangle,1,Active,40.80656681,-73.93554837
E Wheelchair,POINT (-73.94542586730039 40.576561530975596),Out in Open,Manhattan Beach Park,3,Active,40.57656153,-73.94542587
CS Concrete,POINT (-73.94663884855022 40.69446439379947),In Playground,Willoughby Playground,3,Active,40.69446439,-73.94663885
E Wheelchair,POINT (-73.9681028076462 40.6509848599678),"Out in Open, Near Ballfield",Parade Ground,3,Active,40.65098486,-73.96810281
F,POINT (-73.93102651431307 40.67965244558984),"Under Tree, In Playground",Elizabeth Stroud Playground,3,Active,40.67965245,-73.93102651
C,POINT (-73.87796697498094 40.87769659428697),"Just Outside Playground, Under Tree",Williamsbridge Oval,2,Active,40.87769659,-73.87796697
E Wheelchair,POINT (-73.96413970575631 40.57475817616241),Out in Open,Coney Island Beach & Boardwalk,3,Active,40.57475818,-73.96413971
D,POINT (-73.76680977437894 40.59903794784927),In Playground,Bayswater Park,4,Active,40.59903795,-73.76680977
E Wheelchair Child,POINT (-73.97250028021027 40.72345640354782),Near Ballfield,John V. Lindsay East River Park,1,Active,40.7234564,-73.97250028
A,POINT (-73.93075930636051 40.6826949677869),In Playground,El Shabazz Playground,3,Active,40.68269497,-73.93075931
A,POINT (-73.80595277389887 40.73084238265781),In Playground,Emerald Playground,4,Active,40.73084238,-73.80595277
C,POINT (-74.16250293245068 40.53674267345766),In Playground,Lieutenant John H. Martinson Playground,5,Active,40.53674267,-74.16250293
E Wheelchair,POINT (-73.91134283477605 40.82346398851417),Out in Open,O'Neill Triangle,2,Active,40.82346399,-73.91134283
D,POINT (-73.88143934742992 40.84418771623146),"Under Tree, In Playground",Vidalia Park,2,Active,40.84418772,-73.88143935
A,POINT (-73.93125717718979 40.84735684552015),In Playground,Highbridge Park,1,Active,40.84735685,-73.93125718
Other,POINT (-73.75400774861767 40.75876995859164),In Playground,Alley Pond Park,4,Active,40.75876996,-73.75400775
C,POINT (-73.90383055641803 40.66130763545047),"Near Ballfield, Under Tree, In Shade",Floyd Patterson Ballfields,3,Active,40.66130764,-73.90383056
E Wheelchair,POINT (-73.97178646303001 40.693777646523586),"In Playground, Out in Open",Oracle Playground,3,Active,40.69377765,-73.97178646
C,POINT (-73.9651751625904 40.5752541487857),"Under Tree, In Shade, In Playground",Brighton Playground,3,Active,40.57525415,-73.96517516
A,POINT (-73.7926006744865 40.8685878218432),Under Tree,Pelham Bay Park,2,Active,40.86858782,-73.79260067
A,POINT (-73.9804350677738 40.645916340967375),In Playground,Albemarle Playground,3,Active,40.64591634,-73.98043507
A,POINT (-73.82843282776388 40.82662743536614),"In Playground, Out in Open",Bruckner Playground,2,Active,40.82662744,-73.82843283
A,POINT (-73.7281105055527 40.756788580469724),Near Ballfield,Challenge Playground,4,Active,40.75678858,-73.72811051
Other,POINT (-73.92164577595129 40.871093365327276),Near Ballfield,Inwood Hill Park,1,Active,40.87109337,-73.92164578
A,POINT (-73.93280348251835 40.60477661248702),Near Ballfield,Marine Park,3,Active,40.60477661,-73.93280348
A,POINT (-73.83926600439533 40.74771015616417),Under Tree,Flushing Meadows Corona Park,4,Active,40.74771016,-73.83926600000002
A,POINT (-73.7535357376213 40.59259736714667),Out in Open,Park,4,Active,40.59259737,-73.75353574
A,POINT (-73.77027490732499 40.7356174107961),"Out in Open, Near Ballfield",Cunningham Park,4,Active,40.73561741,-73.77027491
D,POINT (-73.89049575972305 40.85055610243307),"Near Ballfield, In Shade",Quarry Ballfields,2,Active,40.8505561,-73.89049576
E Wheelchair,POINT (-73.93905135743877 40.6290684675914),"Under Tree, Out in Open",Amersfort Park,3,Active,40.62906847,-73.93905136
E Wheelchair,POINT (-74.0126604632269 40.63116820551136),In Playground,Leif Ericson Park,3,Active,40.63116821,-74.01266046
A,POINT (-73.79448488194481 40.86296818008109),Out in Open,Pelham Bay Park,2,Active,40.86296818,-73.79448488
A,POINT (-73.83074794623175 40.580923208107755),Out in Open,Seaside Playground,4,Active,40.58092321,-73.83074795
A,POINT (-73.84618602979063 40.67057975791316),Under Tree,Rocket Park,4,Active,40.67057976,-73.84618603
A,POINT (-73.93075704323995 40.871220029647326),Near Ballfield,Inwood Hill Park,1,Active,40.87122003,-73.93075704
A,POINT (-73.93727534818117 40.812412201265694),"Under Tree, Near Ballfield, Just Outside Playground",Abraham Lincoln Playground,1,Active,40.8124122,-73.93727535
E Wheelchair,POINT (-73.92453521384306 40.83154596193935),"Out in Open, In Playground",Mullaly Park,2,Active,40.83154596,-73.92453521
CS Concrete,POINT (-73.99136960277248 40.75914303921504),"In Playground, Near Ballfield, Under Tree",McCaffrey Playground,1,Active,40.75914304,-73.9913696
A,POINT (-73.77401018121809 40.674442707613274),In Shade,Rochdale Park,4,Active,40.67444271,-73.77401018
E Wheelchair,POINT (-73.94362850267527 40.724473799569466),"Under Tree, In Shade",Msgr. McGolrick Park,3,Active,40.7244738,-73.9436285
E Wheelchair,POINT (-73.9621402370385 40.57493045243053),Out in Open,Coney Island Beach & Boardwalk,3,Active,40.57493045,-73.96214024
E Wheelchair,POINT (-73.89287770909196 40.85926988619952),"Under Tree, In Shade",Webster Playground,2,Active,40.85926989,-73.89287771
A,POINT (-73.89870325598791 40.618411150439066),"Near Ballfield, Out in Open",McGuire Fields,3,Active,40.61841115,-73.89870326
A,POINT (-73.98585829604203 40.70140427988352),Near Ballfield,Bridge Park,3,Active,40.70140428,-73.9858583
A,POINT (-73.9009835805382 40.8804257944149),,Cooney Grauer Field,2,Active,40.88042579,-73.90098358
A,POINT (-73.93614284968338 40.60777632604327),"Out in Open, Near Ballfield",Marine Park,3,Active,40.60777633,-73.93614285
Other,POINT (-73.73992509317858 40.742046644702334),"In Shade, Out in Open",Alley Pond Park,4,Active,40.74204664,-73.73992509
A,POINT (-73.95437253975311 40.7968383852681),Out in Open,Central Park,1,Active,40.79683839,-73.95437254
C,POINT (-73.89456014662602 40.84468835591079),Out in Open,Tremont Park,2,Active,40.84468836,-73.89456015
Other,POINT (-73.74391578654551 40.59936010162052),In Playground,Lannett Playground,4,Active,40.59936010000001,-73.74391579
C,POINT (-73.8825278452856 40.718443383887355),In Playground,Juniper Valley Park,4,Active,40.71844338,-73.88252785
E Wheelchair,POINT (-73.86977922768166 40.736330913542076),Just Outside Playground,Newtown Playground,4,Active,40.73633091,-73.86977923
E Wheelchair,POINT (-73.74212365213435 40.662230986445515),Just Outside Playground,Brookville Park,4,Active,40.66223099,-73.74212365
C,POINT (-73.8116674657143 40.7614825876441),Just Outside Playground,Murray Hill Playground,4,Active,40.76148259,-73.81166747
C,POINT (-73.93791388721887 40.63855012701613),"Out in Open, In Playground",Paerdegat Park,3,Active,40.63855013,-73.93791389
C,POINT (-73.96074144642643 40.69591290512406),In Playground,Taaffe Playground,3,Active,40.69591291,-73.96074145
A,POINT (-73.80644913061357 40.66738272074528),Under Tree,Police Officer Edward Byrne Park,4,Active,40.66738272,-73.80644913
Trough,POINT (-73.9064675681541 40.82906849992781),"Out in Open, Just Outside Playground",Estella Diggs Park,2,Active,40.8290685,-73.90646757
E Wheelchair,POINT (-73.99869457268525 40.691703502441804),"Under Tree, Out in Open, Just Outside Playground",Adam Yauch Park,3,Active,40.6917035,-73.99869457
F High Low,POINT (-73.94189794111522 40.79697613631986),"Under Tree, Near Ballfield, In Playground",James Weldon Johnson Playground,1,Active,40.79697614,-73.94189794
E Wheelchair,POINT (-73.96063965079344 40.79344262582424),"Near Ballfield, Under Tree, In Shade",Central Park,1,Active,40.79344263,-73.96063965
F High Low,POINT (-73.92236551700071 40.74116348497076),"Under Tree, Just Outside Playground",L/CPL Thomas P. Noonan Jr. Playground,4,Active,40.74116348,-73.92236552
D,POINT (-73.99459155659433 40.76799132946145),"Near Ballfield, Just Outside Playground",De Witt Clinton Park,1,Active,40.76799133,-73.99459156
C,POINT (-73.94127356008413 40.82599209888858),"Under Tree, In Playground",Jackie Robinson Park,1,Active,40.8259921,-73.94127356
C,POINT (-73.92824602046691 40.700198125427946),"In Playground, Under Tree, In Shade",Fermi Playground,3,Active,40.70019813,-73.92824602
B,POINT (-73.96394455565456 40.663567889819596),Out in Open,Prospect Park,3,Active,40.66356789,-73.96394456
C,POINT (-73.91744054653259 40.77134056883013),"In Playground, Near Ballfield",Hoyt Playground,4,Active,40.77134057,-73.91744055
C,POINT (-73.80537431286639 40.58876674112269),In Playground,Beach Channel Playground,4,Active,40.58876674,-73.80537431
A,POINT (-73.89041139095859 40.83789680223599),Out in Open,Crotona Park,2,Active,40.8378968,-73.89041139
C,POINT (-73.89870519234373 40.83810030670623),"Out in Open, Near Ballfield, In Shade",Crotona Park,2,Active,40.83810031,-73.89870519
D,POINT (-73.88221585178775 40.74200153055429),"Under Tree, Out in Open",Moore Homestead Playground,4,Active,40.74200153,-73.88221585
A,POINT (-73.76972776017713 40.77424875333919),Near Ballfield,John Golden Park,4,Active,40.77424875,-73.76972776
D,POINT (-73.87021901309186 40.85108220146036),Under Tree,Bronx Park,2,Active,40.85108220000001,-73.87021901
A,POINT (-73.85783783064402 40.70045230021199),Out in Open,Forest Park,4,Active,40.7004523,-73.85783783
A,POINT (-74.06731489482969 40.58815718429802),Near Ballfield,Franklin D. Roosevelt Boardwalk and Beach,5,Active,40.58815718,-74.06731489
E Wheelchair,POINT (-74.01956157320075 40.65335932915017),Near Ballfield,Bush Terminal Park,3,Active,40.65335933,-74.01956157
E Wheelchair,POINT (-73.96870625908174 40.77942692954387),"Under Tree, In Shade",Central Park,1,Active,40.77942693,-73.96870626
D,POINT (-73.97876148116036 40.65425923008954),In Playground,Thomas J. Cuite Park,3,Active,40.65425923,-73.97876148
D,POINT (-73.9415014306686 40.58356054388273),Out in Open,Tucker Place,3,Active,40.58356054,-73.94150143
Pedestal,POINT (-73.91628135578715 40.794721294494444),"Out in Open, Near Ballfield",Randall's Island Park,1,Active,40.79472129,-73.91628136
B,POINT (-73.98084319821716 40.726435420269055),"Near Ballfield, Just Outside Playground",Tompkins Square Park,1,Active,40.72643542,-73.98084320000002
Bottle Filler Fountain,POINT (-74.00171028197839 40.692898356275464),Out in Open,Brooklyn Bridge Park,3,Active,40.69289836,-74.00171028
E Wheelchair,POINT (-73.99111489489016 40.698500233652204),"Under Tree, Out in Open",Cadman Plaza Park,3,Active,40.69850023,-73.99111489
C,POINT (-73.80774250896407 40.77055804539364),"Under Tree, In Shade",Bowne Park,4,Active,40.77055805,-73.80774251
B,POINT (-73.9200415083878 40.87452978392946),Near Ballfield,Inwood Hill Park,1,Active,40.87452978,-73.92004151
E Wheelchair,POINT (-73.9355350401616 40.82481148431215),"In Shade, Under Tree, Near Ballfield",Frederick Johnson Playground,1,Active,40.82481148,-73.93553504
A,POINT (-73.83756874989746 40.810506448204194),"Out in Open, Near Ballfield",Ferry Point Park,2,Active,40.81050645,-73.83756875
A,POINT (-73.74232042193965 40.68883306552636),In Playground,Cambria Playground,4,Active,40.68883307,-73.74232042
A,POINT (-73.86071457402264 40.73375589117081),Out in Open,Horace Harding Playground,4,Active,40.73375589,-73.86071457
E Wheelchair,POINT (-73.96675705083153 40.77380009005511),"Under Tree, In Shade",Central Park,1,Active,40.77380009,-73.96675705
F,POINT (-73.9456682225166 40.791823075624855),"In Playground, Near Ballfield",White Park,1,Active,40.79182308,-73.94566822
E Wheelchair,POINT (-73.95786912244233 40.79026902673702),"Near Ballfield, Under Tree, In Shade",Central Park,1,Active,40.79026903,-73.95786912
A,POINT (-73.90439868959314 40.678203467520426),"Under Tree, Out in Open, In Shade",Callahan-Kelly Playground,3,Active,40.67820347,-73.90439869
A,POINT (-73.95623945709546 40.70901154415397),"Under Tree, In Playground",Rodney Park North,3,Active,40.70901154,-73.95623946
C,POINT (-73.9020947334192 40.73820026475878),"Under Tree, In Playground",Nathan Weidenbaum Park,4,Active,40.73820026,-73.90209473
C,POINT (-73.77972998970635 40.69303348849961),Out in Open,St. Albans Park,4,Active,40.69303349,-73.77972999
E Wheelchair Dog,POINT (-74.07759279599435 40.57808346562725),Out in Open,Franklin D. Roosevelt Boardwalk and Beach,5,Active,40.57808347,-74.07759279999998
D,POINT (-73.933874305617 40.84214988394527),Out in Open,Highbridge Park,1,Active,40.84214988,-73.93387431
E High Low,POINT (-73.97367596464233 40.66111423330639),"Out in Open, Near Ballfield",Prospect Park,3,Active,40.66111423,-73.97367596
A,POINT (-73.94192648402338 40.67899444809617),"Under Tree, In Playground",St. Andrew's Playground,3,Active,40.67899445,-73.94192648
C,POINT (-73.89505308577438 40.86425547522381),Out in Open,Poe Park,2,Active,40.86425548,-73.89505309
C,POINT (-73.83323814210081 40.750972641101534),Near Ballfield,Flushing Meadows Corona Park,4,Active,40.75097264,-73.83323814
D,POINT (-73.78802466379594 40.668991836754884),In Playground,Baisley Pond Park,4,Active,40.66899184,-73.78802466
D,POINT (-73.9886162524581 40.78067031941679),Out in Open,Riverside Park South,1,Active,40.78067032,-73.98861625
B,POINT (-73.97595762375767 40.767597247731246),Out in Open,Central Park,1,Active,40.76759725,-73.97595762
C,POINT (-73.90167507202321 40.65676092471323),"Under Tree, In Shade, Just Outside Playground",Brownsville Playground,3,Active,40.65676092,-73.90167507
C,POINT (-73.9656417462942 40.67676095920854),In Playground,Underhill Playground,3,Active,40.67676096,-73.96564175
D,POINT (-73.75773068535814 40.699650776152),In Playground,Daniel M. O'Connell Playground,4,Active,40.69965078,-73.75773069
B,POINT (-73.97453801961827 40.79687981684285),Under Tree,Riverside Park,1,Active,40.79687982,-73.97453802
A,POINT (-73.93822064356422 40.84163784919937),Out in Open,Audubon Playground,1,Active,40.84163785,-73.93822064
E Wheelchair,POINT (-73.97745222316415 40.71161416166946),Near Ballfield,John V. Lindsay East River Park,1,Active,40.71161416,-73.97745222
A,POINT (-73.87150928548176 40.86044726955975),Under Tree,Bronx Park,2,Active,40.86044727,-73.87150929
A,POINT (-74.09141078738381 40.5674446704294),Out in Open,Franklin D. Roosevelt Boardwalk and Beach,5,Active,40.56744467,-74.09141079
A,POINT (-73.84784203028038 40.72633923715571),Under Tree,Yellowstone Park,4,Active,40.72633924,-73.84784203
E Wheelchair,POINT (-73.99819159602784 40.730763323367164),Out in Open,Washington Square Park,1,Active,40.73076332,-73.9981916
C,POINT (-73.99010137418351 40.763280087259),"In Playground, Under Tree, In Shade",Gutenberg Playground,1,Active,40.76328009,-73.99010137
A,POINT (-73.85121336579608 40.79188928306527),Near Ballfield,Macneil Park,4,Active,40.79188928,-73.85121337
Other,POINT (-74.0075138902283 40.7032096722549),In Shade,East River Waterfront Esplanade,1,Active,40.70320967,-74.00751389
A,POINT (-73.95252343473513 40.82038582097823),"Near Ballfield, Just Outside Playground",Jacob H. Schiff Playground,1,Active,40.82038582,-73.95252343
A,POINT (-74.01469855539871 40.610261764328044),Near Ballfield,Dyker Beach Park,3,Active,40.61026176,-74.01469856
E Wheelchair Child,POINT (-74.0045371235371 40.64757232729562),"In Playground, Out in Open",Sunset Park,3,Active,40.64757233,-74.00453712
A,POINT (-73.92152574076425 40.74712674998846),Out in Open,Torsney Playground,4,Active,40.74712675,-73.92152574
C,POINT (-73.77363101785245 40.72904529111053),"Out in Open, Near Ballfield",Cunningham Park,4,Active,40.72904529,-73.77363102
C,POINT (-73.84809520672721 40.67147010318032),Out in Open,Tudor Park,4,Active,40.6714701,-73.84809521
Pedestal,POINT (-73.93154024482182 40.78601956881132),Near Ballfield,Wards Island Park,1,Active,40.78601957,-73.93154024
C,POINT (-73.99534150090524 40.700940882782184),Out in Open,Squibb Park,3,Active,40.70094088,-73.99534150000002
A,POINT (-73.90211184552072 40.66396446078934),"Under Tree, In Shade",Livonia Park,3,Active,40.66396446,-73.90211185
A,POINT (-73.9331209716093 40.75751202262618),"Under Tree, Out in Open",Dutch Kills Playground,4,Active,40.75751202,-73.93312097
E Wheelchair Child,POINT (-73.91668623601305 40.80426532711726),"Out in Open, In Playground",Millbrook Playground,2,Active,40.80426533,-73.91668624
C,POINT (-73.78406400976091 40.675441367117394),Out in Open,Baisley Pond Park,4,Active,40.67544137,-73.78406401
D,POINT (-73.81293503116964 40.69931465633155),In Playground,Howard Von Dohlen Playground,4,Active,40.69931466,-73.81293503
E Wheelchair Dog,POINT (-73.95339503168559 40.82600159967381),"Out in Open, Just Outside Playground",Riverside Park,1,Active,40.8260016,-73.95339503
A,POINT (-73.76976419853345 40.68654608065911),Under Tree,Roy Wilkins Recreation Center,4,Active,40.68654608,-73.7697642
A,POINT (-73.91302837000838 40.69613061003914),"Out in Open, Near Ballfield",Bushwick Playground,3,Active,40.69613061,-73.91302837
D,POINT (-73.99042922905407 40.68462908263084),In Playground,Boerum Park,3,Active,40.68462908,-73.99042923
C,POINT (-73.79441368763484 40.86587071315581),Out in Open,Pelham Bay Park,2,Active,40.86587071,-73.79441369
A,POINT (-73.86009273279399 40.72074164786574),"Out in Open, Just Outside Playground",The Painter's Playground,4,Active,40.72074165,-73.86009273
Other,POINT (-73.8859252454458 40.81422572279497),In Shade,Hunts Point Playground,2,Active,40.81422572,-73.88592525
C,POINT (-74.10442130107785 40.616459622004776),Out in Open,Clove Lakes Park,5,Active,40.61645962,-74.1044213
Other,POINT (-74.01814085563454 40.70789774829332),Out in Open,Battery Park City,1,Active,40.70789775,-74.01814086
E Wheelchair,POINT (-74.01514443921639 40.70204198579384),Under Tree,The Battery,1,Active,40.70204199,-74.01514444
A,POINT (-73.97827776513877 40.57631327612181),"Near Ballfield, Out in Open",Luna Park,3,Active,40.57631328,-73.97827777
E Wheelchair Child,POINT (-73.77489893752461 40.67421173805833),In Playground,Rochdale Park,4,Active,40.67421174,-73.77489894
A,POINT (-73.84429750036576 40.74555141123309),Under Tree,Flushing Meadows Corona Park,4,Active,40.74555141,-73.8442975
D,POINT (-73.92593784248368 40.687670160471534),Near Ballfield,P.O. Reinaldo Salgado Playground,3,Active,40.68767016,-73.92593784
A,POINT (-74.03898702985074 40.632574541190365),Near Ballfield,Shore Park and Parkway,3,Active,40.63257454,-74.03898703
C,POINT (-73.97439795312285 40.71968567547494),Near Ballfield,John V. Lindsay East River Park,1,Active,40.71968568,-73.97439795
E Wheelchair,POINT (-73.95799115668036 40.6916272549908),Under Tree,Star Spangled Playground,3,Active,40.69162725,-73.95799116
F,POINT (-73.90728171432552 40.85615821173764),"Out in Open, In Playground",Grand Playground,2,Active,40.85615821,-73.90728171
C,POINT (-73.98441248523646 40.623817301199175),"Out in Open, In Playground",Gravesend Park,3,Active,40.62381729999999,-73.98441249
A,POINT (-74.0011693664107 40.5977514401594),"Near Ballfield, Out in Open",Bensonhurst Park,3,Active,40.59775144,-74.00116937
C,POINT (-73.85063916867145 40.664649426470156),In Playground,Harold Schneiderman Playground,4,Active,40.66464943,-73.85063917
E High Low,POINT (-73.97385856842527 40.66077245692327),"Out in Open, Near Ballfield",Prospect Park,3,Active,40.66077246,-73.97385857
A,POINT (-73.93542908619297 40.67439661834205),"Out in Open, Near Ballfield",St. John's Recreation Center,3,Active,40.67439662,-73.93542909
Trough,POINT (-73.83594911860082 40.57778749039773),Out in Open,Rockaway Beach,4,Active,40.57778749,-73.83594912
A,POINT (-73.94981936556829 40.768945030251516),Out in Open,John Jay Park,1,Active,40.76894503,-73.94981937
E Wheelchair,POINT (-73.94119851636638 40.61998303228804),Out in Open,Fraser Square,3,Active,40.61998303,-73.94119852
E Wheelchair,POINT (-73.94636616795937 40.575938219238935),Out in Open,Manhattan Beach Park,3,Active,40.57593822,-73.94636617
A,POINT (-73.9190851521163 40.62594245186739),"Out in Open, Near Ballfield",Jacob Joffe Fields,3,Active,40.62594245,-73.91908515
E Wheelchair Child,POINT (-74.00216344533202 40.64759342623549),In Playground,Sunset Park,3,Active,40.64759343,-74.00216345
A,POINT (-73.82137592900415 40.71197986787882),In Playground,Hoover - Manton Playgrounds,4,Active,40.71197987,-73.82137593
C,POINT (-73.84193910813754 40.746495499913266),Out in Open,Flushing Meadows Corona Park,4,Active,40.7464955,-73.84193911
D,POINT (-73.75774152997224 40.71327232856396),Near Ballfield,Haggerty Park,4,Active,40.71327233,-73.75774153
CS Metal,POINT (-73.92503785254716 40.807779680419344),In Playground,Lozada Playground,2,Active,40.80777968,-73.92503785
F,POINT (-73.95775137402384 40.75934225241031),Out in Open,Andrew Haswell Green Park,1,Active,40.75934225,-73.95775137
E Wheelchair,POINT (-73.97186762118542 40.65223244852575),Out in Open,Prospect Park,3,Active,40.65223245,-73.97186762
E Wheelchair,POINT (-73.97615204446086 40.57345080416009),Out in Open,Coney Island Beach & Boardwalk,3,Active,40.5734508,-73.97615204
C,POINT (-73.90206338593595 40.71883687341471),"In Shade, Just Outside Playground",Reiff Playground,4,Active,40.71883687,-73.90206339
E Wheelchair Child,POINT (-74.07677070174022 40.62675053088382),Out in Open,Tappen Park,5,Active,40.62675053,-74.07677070000003
A,POINT (-73.95486770167905 40.810481575830536),Near Ballfield,Playground One Twenty Five CXXV,1,Active,40.81048158,-73.95486770000002
E,POINT (-73.99025621887462 40.5877872108368),"Under Tree, In Shade, Just Outside Playground",Calvert Vaux Park,3,Active,40.58778721,-73.99025622
CS Metal,POINT (-73.92387867510826 40.63266361134447),"Under Tree, Out in Open, Just Outside Playground",Fox Playground,3,Active,40.63266361,-73.92387868
A,POINT (-74.15489467266116 40.60692384251561),Near Ballfield,Willowbrook Park,5,Active,40.60692384,-74.15489467
A,POINT (-73.95789962433184 40.60446267705683),Out in Open,Kelly Park,3,Active,40.60446268,-73.95789962
E Wheelchair,POINT (-73.96802508382915 40.75181108734201),Out in Open,Dag Hammarskjold Plaza,1,Active,40.75181109,-73.96802508
E Wheelchair,POINT (-73.97709123913513 40.66339652393596),"Out in Open, In Playground",Prospect Park,3,Active,40.66339652,-73.97709124
A,POINT (-73.76971862345277 40.77330172342173),Near Ballfield,John Golden Park,4,Active,40.77330172,-73.76971862
D,POINT (-73.84941231729981 40.740931774935525),In Playground,Flushing Meadows Corona Park,4,Active,40.74093177,-73.84941232
C,POINT (-73.87622269403575 40.6794330037846),"In Shade, Near Ballfield",City Line Park,3,Active,40.679433,-73.87622269
Other,POINT (-73.87593103348955 40.87801849837967),Out in Open,Williamsbridge Oval,2,Active,40.8780185,-73.87593103
C,POINT (-73.85295454667163 40.736211732352764),Near Ballfield,Playground Sixty Two LXII,4,Active,40.73621173,-73.85295455
Pedestal,POINT (-74.1947444497487 40.56180332948528),Near Ballfield,Freshkills Park,5,Active,40.56180333,-74.19474445
A,POINT (-73.75015576227152 40.740610888808824),Out in Open,Alley Pond Park,4,Active,40.74061089,-73.75015576
E Wheelchair,POINT (-73.96888152180203 40.78055635512876),"Under Tree, Out in Open",Central Park,1,Active,40.78055636,-73.96888152
Trough,POINT (-73.96063471911216 40.7301016420227),"Out in Open, Just Outside Playground",WNYC Transmitter Park,3,Active,40.73010164,-73.96063472
B,POINT (-73.92877308812115 40.867246499895224),In Playground,Inwood Hill Park,1,Active,40.8672465,-73.92877309
A,POINT (-73.98857835651701 40.71219481271364),"Under Tree, Just Outside Playground, Near Ballfield",Little Flower Playground,1,Active,40.71219481,-73.98857836
Bottle Filler High Low,POINT (-73.94698341046764 40.8122383785103),"Near Ballfield, Under Tree, Just Outside Playground",St. Nicholas Playground North,1,Active,40.81223838,-73.94698341
C,POINT (-73.97153220943159 40.68894901815161),"Out in Open, In Playground",Edmonds Playground,3,Active,40.68894902,-73.97153221
C,POINT (-73.79132386731557 40.869661873428186),Under Tree,Pelham Bay Park,2,Active,40.86966187,-73.79132387
A,POINT (-73.8504468840541 40.74624860983386),Under Tree,Flushing Meadows Corona Park,4,Active,40.74624861,-73.85044688
A,POINT (-73.76864162333601 40.73609736241555),"Out in Open, Near Ballfield",Cunningham Park,4,Active,40.73609736,-73.76864162
A,POINT (-74.11022936741053 40.64304857079267),Near Ballfield,Walker Park,5,Active,40.64304857,-74.11022937
A,POINT (-73.73492448589441 40.76213588548124),In Playground,Louis Pasteur Park,4,Active,40.76213589,-73.73492449
D,POINT (-73.92637398686408 40.606495519995285),In Playground,Marine Park,3,Active,40.60649552,-73.92637399
